[
  {
    "id": "osm_297193119",
    "name": "Génie de la Navigation",
    "lat": 43.1200567,
    "lng": 5.9317067,
    "location": {
      "_latitude": 43.1200567,
      "_longitude": 5.9317067
    },
    "description": "Point d'intérêt: Génie de la Navigation",
    "category": "culture",
    "categoryGroup": "Culture",
    "categoryItem": "artwork",
    "city": "Toulon",
    "departmentCode": "83",
    "imageUrls": [
      "https://www.wikidata.org/wiki/Q3122966"
    ],
    "images": [
      "https://www.wikidata.org/wiki/Q3122966"
    ],
    "websiteUrl": null,
    "website": null,
    "source": "openstreetmap",
    "osmId": 297193119,
    "isPublic": true,
    "isValidated": true,
    "isFree": null,
    "pmrAccessible": false,
    "kidsFriendly": null,
    "createdAt": {
      "_seconds": 1771835665,
      "_nanoseconds": 0
    },
    "updatedAt": "2026-02-23T09:34:25.203449"
  },
  {
    "id": "osm_487625403",
    "name": "Musée de la Mine de Cap Garonne",
    "lat": 43.0815767,
    "lng": 6.0324224,
    "location": {
      "_latitude": 43.0815767,
      "_longitude": 6.0324224
    },
    "description": "Point d'intérêt: Musée de la Mine de Cap Garonne",
    "category": "culture",
    "categoryGroup": "Culture",
    "categoryItem": "museum",
    "city": "Toulon",
    "departmentCode": "83",
    "imageUrls": [],
    "images": [],
    "websiteUrl": "https://www.mine-capgaronne.fr/",
    "website": "https://www.mine-capgaronne.fr/",
    "source": "openstreetmap",
    "osmId": 487625403,
    "isPublic": true,
    "isValidated": true,
    "isFree": null,
    "pmrAccessible": true,
    "kidsFriendly": null,
    "createdAt": {
      "_seconds": 1771835665,
      "_nanoseconds": 0
    },
    "updatedAt": "2026-02-23T09:34:25.203497"
  },
  {
    "id": "osm_592348971",
    "name": "Salle daudet",
    "lat": 43.0938319,
    "lng": 5.8432193,
    "location": {
      "_latitude": 43.0938319,
      "_longitude": 5.8432193
    },
    "description": "Point d'intérêt: Salle daudet",
    "category": "culture",
    "categoryGroup": "Culture",
    "categoryItem": "theatre",
    "city": "Toulon",
    "departmentCode": "83",
    "imageUrls": [],
    "images": [],
    "websiteUrl": null,
    "website": null,
    "source": "openstreetmap",
    "osmId": 592348971,
    "isPublic": true,
    "isValidated": true,
    "isFree": null,
    "pmrAccessible": false,
    "kidsFriendly": null,
    "createdAt": {
      "_seconds": 1771835665,
      "_nanoseconds": 0
    },
    "updatedAt": "2026-02-23T09:34:25.203515"
  },
  {
    "id": "osm_1207265103",
    "name": "Pathé Toulon",
    "lat": 43.1256832,
    "lng": 5.9292491,
    "location": {
      "_latitude": 43.1256832,
      "_longitude": 5.9292491
    },
    "description": "Point d'intérêt: Pathé Toulon",
    "category": "culture",
    "categoryGroup": "Culture",
    "categoryItem": "cinema",
    "city": "Toulon",
    "departmentCode": "83",
    "imageUrls": [],
    "images": [],
    "websiteUrl": "https://www.pathe.fr/cinemas/cinema-pathe-toulon",
    "website": "https://www.pathe.fr/cinemas/cinema-pathe-toulon",
    "source": "openstreetmap",
    "osmId": 1207265103,
    "isPublic": true,
    "isValidated": true,
    "isFree": null,
    "pmrAccessible": true,
    "kidsFriendly": null,
    "createdAt": {
      "_seconds": 1771835665,
      "_nanoseconds": 0
    },
    "updatedAt": "2026-02-23T09:34:25.203531"
  },
  {
    "id": "osm_1785639978",
    "name": "Le Royal",
    "lat": 43.1248608,
    "lng": 5.9300647,
    "location": {
      "_latitude": 43.1248608,
      "_longitude": 5.9300647
    },
    "description": "Point d'intérêt: Le Royal",
    "category": "culture",
    "categoryGroup": "Culture",
    "categoryItem": "cinema",
    "city": "Toulon",
    "departmentCode": "83",
    "imageUrls": [],
    "images": [],
    "websiteUrl": null,
    "website": null,
    "source": "openstreetmap",
    "osmId": 1785639978,
    "isPublic": true,
    "isValidated": true,
    "isFree": null,
    "pmrAccessible": false,
    "kidsFriendly": null,
    "createdAt": {
      "_seconds": 1771835665,
      "_nanoseconds": 0
    },
    "updatedAt": "2026-02-23T09:34:25.203547"
  },
  {
    "id": "osm_1804051009",
    "name": "Théàtre Liberté",
    "lat": 43.1264246,
    "lng": 5.9306178,
    "location": {
      "_latitude": 43.1264246,
      "_longitude": 5.9306178
    },
    "description": "Point d'intérêt: Théàtre Liberté",
    "category": "culture",
    "categoryGroup": "Culture",
    "categoryItem": "theatre",
    "city": "Toulon",
    "departmentCode": "83",
    "imageUrls": [],
    "images": [],
    "websiteUrl": null,
    "website": null,
    "source": "openstreetmap",
    "osmId": 1804051009,
    "isPublic": true,
    "isValidated": true,
    "isFree": null,
    "pmrAccessible": false,
    "kidsFriendly": null,
    "createdAt": {
      "_seconds": 1771835665,
      "_nanoseconds": 0
    },
    "updatedAt": "2026-02-23T09:34:25.203562"
  },
  {
    "id": "osm_2196651226",
    "name": "Musée d'Art",
    "lat": 43.1263031,
    "lng": 5.9272107,
    "location": {
      "_latitude": 43.1263031,
      "_longitude": 5.9272107
    },
    "description": "Point d'intérêt: Musée d'Art",
    "category": "culture",
    "categoryGroup": "Culture",
    "categoryItem": "museum",
    "city": "Toulon",
    "departmentCode": "83",
    "imageUrls": [
      "https://www.wikidata.org/wiki/Q3329600"
    ],
    "images": [
      "https://www.wikidata.org/wiki/Q3329600"
    ],
    "websiteUrl": "https://toulon.fr/envie-bouger/article/musee-d-art-de-toulon-mat",
    "website": "https://toulon.fr/envie-bouger/article/musee-d-art-de-toulon-mat",
    "source": "openstreetmap",
    "osmId": 2196651226,
    "isPublic": true,
    "isValidated": true,
    "isFree": null,
    "pmrAccessible": false,
    "kidsFriendly": null,
    "createdAt": {
      "_seconds": 1771835665,
      "_nanoseconds": 0
    },
    "updatedAt": "2026-02-23T09:34:25.203582"
  },
  {
    "id": "osm_2275695395",
    "name": "Cinéma ABC",
    "lat": 43.1172374,
    "lng": 5.7992313,
    "location": {
      "_latitude": 43.1172374,
      "_longitude": 5.7992313
    },
    "description": "Point d'intérêt: Cinéma ABC",
    "category": "culture",
    "categoryGroup": "Culture",
    "categoryItem": "cinema",
    "city": "Toulon",
    "departmentCode": "83",
    "imageUrls": [],
    "images": [],
    "websiteUrl": null,
    "website": null,
    "source": "openstreetmap",
    "osmId": 2275695395,
    "isPublic": true,
    "isValidated": true,
    "isFree": null,
    "pmrAccessible": false,
    "kidsFriendly": null,
    "createdAt": {
      "_seconds": 1771835665,
      "_nanoseconds": 0
    },
    "updatedAt": "2026-02-23T09:34:25.203597"
  },
  {
    "id": "osm_2283149206",
    "name": "Théâtre de la porte d'Italie",
    "lat": 43.121678,
    "lng": 5.9368639,
    "location": {
      "_latitude": 43.121678,
      "_longitude": 5.9368639
    },
    "description": "Point d'intérêt: Théâtre de la porte d'Italie",
    "category": "culture",
    "categoryGroup": "Culture",
    "categoryItem": "theatre",
    "city": "Toulon",
    "departmentCode": "83",
    "imageUrls": [],
    "images": [],
    "websiteUrl": null,
    "website": null,
    "source": "openstreetmap",
    "osmId": 2283149206,
    "isPublic": true,
    "isValidated": true,
    "isFree": null,
    "pmrAccessible": false,
    "kidsFriendly": null,
    "createdAt": {
      "_seconds": 1771835665,
      "_nanoseconds": 0
    },
    "updatedAt": "2026-02-23T09:34:25.203611"
  },
  {
    "id": "osm_2362290001",
    "name": "Théâtre Galli",
    "lat": 43.1183862,
    "lng": 5.8038125,
    "location": {
      "_latitude": 43.1183862,
      "_longitude": 5.8038125
    },
    "description": "Point d'intérêt: Théâtre Galli",
    "category": "culture",
    "categoryGroup": "Culture",
    "categoryItem": "theatre",
    "city": "Toulon",
    "departmentCode": "83",
    "imageUrls": [],
    "images": [],
    "websiteUrl": null,
    "website": null,
    "source": "openstreetmap",
    "osmId": 2362290001,
    "isPublic": true,
    "isValidated": true,
    "isFree": null,
    "pmrAccessible": false,
    "kidsFriendly": null,
    "createdAt": {
      "_seconds": 1771835665,
      "_nanoseconds": 0
    },
    "updatedAt": "2026-02-23T09:34:25.203626"
  },
  {
    "id": "osm_2451703498",
    "name": "Sculpture La partie de Carte",
    "lat": 43.1213218,
    "lng": 5.9313887,
    "location": {
      "_latitude": 43.1213218,
      "_longitude": 5.9313887
    },
    "description": "Point d'intérêt: Sculpture La partie de Carte",
    "category": "culture",
    "categoryGroup": "Culture",
    "categoryItem": "artwork",
    "city": "Toulon",
    "departmentCode": "83",
    "imageUrls": [
      "https://commons.wikimedia.org/wiki/Special:FilePath/Sculpture_La_partie_de_Carte_(14160132326).jpg",
      "https://www.wikidata.org/wiki/Q124736163"
    ],
    "images": [
      "https://commons.wikimedia.org/wiki/Special:FilePath/Sculpture_La_partie_de_Carte_(14160132326).jpg",
      "https://www.wikidata.org/wiki/Q124736163"
    ],
    "websiteUrl": null,
    "website": null,
    "source": "openstreetmap",
    "osmId": 2451703498,
    "isPublic": true,
    "isValidated": true,
    "isFree": null,
    "pmrAccessible": false,
    "kidsFriendly": null,
    "createdAt": {
      "_seconds": 1771835665,
      "_nanoseconds": 0
    },
    "updatedAt": "2026-02-23T09:34:25.203668"
  },
  {
    "id": "osm_2707083014",
    "name": "POI sans nom",
    "lat": 43.1218508,
    "lng": 6.0735424,
    "location": {
      "_latitude": 43.1218508,
      "_longitude": 6.0735424
    },
    "description": "Point d'intérêt: POI sans nom",
    "category": "culture",
    "categoryGroup": "Culture",
    "categoryItem": "artwork",
    "city": "Toulon",
    "departmentCode": "83",
    "imageUrls": [],
    "images": [],
    "websiteUrl": null,
    "website": null,
    "source": "openstreetmap",
    "osmId": 2707083014,
    "isPublic": true,
    "isValidated": true,
    "isFree": null,
    "pmrAccessible": false,
    "kidsFriendly": null,
    "createdAt": {
      "_seconds": 1771835665,
      "_nanoseconds": 0
    },
    "updatedAt": "2026-02-23T09:34:25.203684"
  },
  {
    "id": "osm_2927924893",
    "name": "Musée des arts asiatiques",
    "lat": 43.1077593,
    "lng": 5.9370441,
    "location": {
      "_latitude": 43.1077593,
      "_longitude": 5.9370441
    },
    "description": "Point d'intérêt: Musée des arts asiatiques",
    "category": "culture",
    "categoryGroup": "Culture",
    "categoryItem": "museum",
    "city": "Toulon",
    "departmentCode": "83",
    "imageUrls": [
      "https://www.wikidata.org/wiki/Q3330161"
    ],
    "images": [
      "https://www.wikidata.org/wiki/Q3330161"
    ],
    "websiteUrl": null,
    "website": null,
    "source": "openstreetmap",
    "osmId": 2927924893,
    "isPublic": true,
    "isValidated": true,
    "isFree": null,
    "pmrAccessible": false,
    "kidsFriendly": null,
    "createdAt": {
      "_seconds": 1771835665,
      "_nanoseconds": 0
    },
    "updatedAt": "2026-02-23T09:34:25.203703"
  },
  {
    "id": "osm_2948025045",
    "name": "Le Comédia",
    "lat": 43.1115854,
    "lng": 5.9398577,
    "location": {
      "_latitude": 43.1115854,
      "_longitude": 5.9398577
    },
    "description": "Point d'intérêt: Le Comédia",
    "category": "culture",
    "categoryGroup": "Culture",
    "categoryItem": "theatre",
    "city": "Toulon",
    "departmentCode": "83",
    "imageUrls": [],
    "images": [],
    "websiteUrl": null,
    "website": null,
    "source": "openstreetmap",
    "osmId": 2948025045,
    "isPublic": true,
    "isValidated": true,
    "isFree": null,
    "pmrAccessible": false,
    "kidsFriendly": null,
    "createdAt": {
      "_seconds": 1771835665,
      "_nanoseconds": 0
    },
    "updatedAt": "2026-02-23T09:34:25.203717"
  },
  {
    "id": "osm_3351393699",
    "name": "Saatchi gallérie\n",
    "lat": 43.107112,
    "lng": 6.024454,
    "location": {
      "_latitude": 43.107112,
      "_longitude": 6.024454
    },
    "description": "Point d'intérêt: Saatchi gallérie\n",
    "category": "culture",
    "categoryGroup": "Culture",
    "categoryItem": "gallery",
    "city": "Toulon",
    "departmentCode": "83",
    "imageUrls": [],
    "images": [],
    "websiteUrl": null,
    "website": null,
    "source": "openstreetmap",
    "osmId": 3351393699,
    "isPublic": true,
    "isValidated": true,
    "isFree": null,
    "pmrAccessible": false,
    "kidsFriendly": null,
    "createdAt": {
      "_seconds": 1771835665,
      "_nanoseconds": 0
    },
    "updatedAt": "2026-02-23T09:34:25.203731"
  },
  {
    "id": "osm_3957851343",
    "name": "Le Rocher",
    "lat": 43.1243289,
    "lng": 6.0091458,
    "location": {
      "_latitude": 43.1243289,
      "_longitude": 6.0091458
    },
    "description": "Cinéma d'art et d'essai Le Rocher (public)",
    "category": "culture",
    "categoryGroup": "Culture",
    "categoryItem": "cinema",
    "city": "Toulon",
    "departmentCode": "83",
    "imageUrls": [
      "https://www.wikidata.org/wiki/Q61859943"
    ],
    "images": [
      "https://www.wikidata.org/wiki/Q61859943"
    ],
    "websiteUrl": null,
    "website": null,
    "source": "openstreetmap",
    "osmId": 3957851343,
    "isPublic": true,
    "isValidated": true,
    "isFree": null,
    "pmrAccessible": false,
    "kidsFriendly": null,
    "createdAt": {
      "_seconds": 1771835665,
      "_nanoseconds": 0
    },
    "updatedAt": "2026-02-23T09:34:25.203751"
  },
  {
    "id": "osm_4983713469",
    "name": "Pathé La Valette",
    "lat": 43.1368361,
    "lng": 6.0072728,
    "location": {
      "_latitude": 43.1368361,
      "_longitude": 6.0072728
    },
    "description": "Point d'intérêt: Pathé La Valette",
    "category": "culture",
    "categoryGroup": "Culture",
    "categoryItem": "cinema",
    "city": "Toulon",
    "departmentCode": "83",
    "imageUrls": [],
    "images": [],
    "websiteUrl": "https://www.pathe.fr/cinemas/cinema-pathe-la-valette",
    "website": "https://www.pathe.fr/cinemas/cinema-pathe-la-valette",
    "source": "openstreetmap",
    "osmId": 4983713469,
    "isPublic": true,
    "isValidated": true,
    "isFree": null,
    "pmrAccessible": false,
    "kidsFriendly": null,
    "createdAt": {
      "_seconds": 1771835665,
      "_nanoseconds": 0
    },
    "updatedAt": "2026-02-23T09:34:25.203765"
  },
  {
    "id": "osm_5170084793",
    "name": "Cheval",
    "lat": 43.1210294,
    "lng": 6.0211566,
    "location": {
      "_latitude": 43.1210294,
      "_longitude": 6.0211566
    },
    "description": "Point d'intérêt: Cheval",
    "category": "culture",
    "categoryGroup": "Culture",
    "categoryItem": "artwork",
    "city": "Toulon",
    "departmentCode": "83",
    "imageUrls": [],
    "images": [],
    "websiteUrl": null,
    "website": null,
    "source": "openstreetmap",
    "osmId": 5170084793,
    "isPublic": true,
    "isValidated": true,
    "isFree": null,
    "pmrAccessible": false,
    "kidsFriendly": null,
    "createdAt": {
      "_seconds": 1771835665,
      "_nanoseconds": 0
    },
    "updatedAt": "2026-02-23T09:34:25.203780"
  },
  {
    "id": "osm_5170084794",
    "name": "2 Bisons",
    "lat": 43.1208295,
    "lng": 6.0212932,
    "location": {
      "_latitude": 43.1208295,
      "_longitude": 6.0212932
    },
    "description": "Point d'intérêt: 2 Bisons",
    "category": "culture",
    "categoryGroup": "Culture",
    "categoryItem": "artwork",
    "city": "Toulon",
    "departmentCode": "83",
    "imageUrls": [],
    "images": [],
    "websiteUrl": null,
    "website": null,
    "source": "openstreetmap",
    "osmId": 5170084794,
    "isPublic": true,
    "isValidated": true,
    "isFree": null,
    "pmrAccessible": false,
    "kidsFriendly": null,
    "createdAt": {
      "_seconds": 1771835665,
      "_nanoseconds": 0
    },
    "updatedAt": "2026-02-23T09:34:25.203796"
  },
  {
    "id": "osm_5390578593",
    "name": "Fort de la Bayarde",
    "lat": 43.0907449,
    "lng": 6.056423,
    "location": {
      "_latitude": 43.0907449,
      "_longitude": 6.056423
    },
    "description": "Point d'intérêt: Fort de la Bayarde",
    "category": "culture",
    "categoryGroup": "Culture",
    "categoryItem": "theatre",
    "city": "Toulon",
    "departmentCode": "83",
    "imageUrls": [],
    "images": [],
    "websiteUrl": null,
    "website": null,
    "source": "openstreetmap",
    "osmId": 5390578593,
    "isPublic": true,
    "isValidated": true,
    "isFree": null,
    "pmrAccessible": false,
    "kidsFriendly": null,
    "createdAt": {
      "_seconds": 1771835665,
      "_nanoseconds": 0
    },
    "updatedAt": "2026-02-23T09:34:25.203811"
  },
  {
    "id": "osm_7658116541",
    "name": "Fresques connectées du Revest-les-Eaux",
    "lat": 43.1844291,
    "lng": 5.9247189,
    "location": {
      "_latitude": 43.1844291,
      "_longitude": 5.9247189
    },
    "description": "Point d'intérêt: Fresques connectées du Revest-les-Eaux",
    "category": "culture",
    "categoryGroup": "Culture",
    "categoryItem": "artwork",
    "city": "Toulon",
    "departmentCode": "83",
    "imageUrls": [],
    "images": [],
    "websiteUrl": null,
    "website": null,
    "source": "openstreetmap",
    "osmId": 7658116541,
    "isPublic": true,
    "isValidated": true,
    "isFree": null,
    "pmrAccessible": false,
    "kidsFriendly": null,
    "createdAt": {
      "_seconds": 1771835665,
      "_nanoseconds": 0
    },
    "updatedAt": "2026-02-23T09:34:25.203824"
  },
  {
    "id": "osm_7658116542",
    "name": "Fresques connectées du Revest-les-Eaux",
    "lat": 43.1768091,
    "lng": 5.9252566,
    "location": {
      "_latitude": 43.1768091,
      "_longitude": 5.9252566
    },
    "description": "Point d'intérêt: Fresques connectées du Revest-les-Eaux",
    "category": "culture",
    "categoryGroup": "Culture",
    "categoryItem": "artwork",
    "city": "Toulon",
    "departmentCode": "83",
    "imageUrls": [],
    "images": [],
    "websiteUrl": null,
    "website": null,
    "source": "openstreetmap",
    "osmId": 7658116542,
    "isPublic": true,
    "isValidated": true,
    "isFree": null,
    "pmrAccessible": false,
    "kidsFriendly": null,
    "createdAt": {
      "_seconds": 1771835665,
      "_nanoseconds": 0
    },
    "updatedAt": "2026-02-23T09:34:25.203858"
  },
  {
    "id": "osm_7739366239",
    "name": "Musée Frédéric Dumas",
    "lat": 43.1172174,
    "lng": 5.7999752,
    "location": {
      "_latitude": 43.1172174,
      "_longitude": 5.7999752
    },
    "description": "Point d'intérêt: Musée Frédéric Dumas",
    "category": "culture",
    "categoryGroup": "Culture",
    "categoryItem": "museum",
    "city": "Toulon",
    "departmentCode": "83",
    "imageUrls": [],
    "images": [],
    "websiteUrl": "http://museedumas.fr",
    "website": "http://museedumas.fr",
    "source": "openstreetmap",
    "osmId": 7739366239,
    "isPublic": true,
    "isValidated": true,
    "isFree": null,
    "pmrAccessible": true,
    "kidsFriendly": null,
    "createdAt": {
      "_seconds": 1771835665,
      "_nanoseconds": 0
    },
    "updatedAt": "2026-02-23T09:34:25.203876"
  },
  {
    "id": "osm_7992675300",
    "name": "POI sans nom",
    "lat": 43.120907,
    "lng": 6.0212482,
    "location": {
      "_latitude": 43.120907,
      "_longitude": 6.0212482
    },
    "description": "Point d'intérêt: POI sans nom",
    "category": "culture",
    "categoryGroup": "Culture",
    "categoryItem": "artwork",
    "city": "Toulon",
    "departmentCode": "83",
    "imageUrls": [],
    "images": [],
    "websiteUrl": null,
    "website": null,
    "source": "openstreetmap",
    "osmId": 7992675300,
    "isPublic": true,
    "isValidated": true,
    "isFree": null,
    "pmrAccessible": false,
    "kidsFriendly": null,
    "createdAt": {
      "_seconds": 1771835665,
      "_nanoseconds": 0
    },
    "updatedAt": "2026-02-23T09:34:25.203887"
  },
  {
    "id": "osm_8069770352",
    "name": "Le Rio",
    "lat": 43.1901042,
    "lng": 6.0396735,
    "location": {
      "_latitude": 43.1901042,
      "_longitude": 6.0396735
    },
    "description": "Point d'intérêt: Le Rio",
    "category": "culture",
    "categoryGroup": "Culture",
    "categoryItem": "cinema",
    "city": "Toulon",
    "departmentCode": "83",
    "imageUrls": [],
    "images": [],
    "websiteUrl": "https://www.ville-sollies-pont.fr/fr/cinema.htm",
    "website": "https://www.ville-sollies-pont.fr/fr/cinema.htm",
    "source": "openstreetmap",
    "osmId": 8069770352,
    "isPublic": true,
    "isValidated": true,
    "isFree": null,
    "pmrAccessible": false,
    "kidsFriendly": null,
    "createdAt": {
      "_seconds": 1771835665,
      "_nanoseconds": 0
    },
    "updatedAt": "2026-02-23T09:34:25.203898"
  },
  {
    "id": "osm_8231456201",
    "name": "POI sans nom",
    "lat": 43.1276873,
    "lng": 5.8747949,
    "location": {
      "_latitude": 43.1276873,
      "_longitude": 5.8747949
    },
    "description": "Point d'intérêt: POI sans nom",
    "category": "culture",
    "categoryGroup": "Culture",
    "categoryItem": "artwork",
    "city": "Toulon",
    "departmentCode": "83",
    "imageUrls": [],
    "images": [],
    "websiteUrl": null,
    "website": null,
    "source": "openstreetmap",
    "osmId": 8231456201,
    "isPublic": true,
    "isValidated": true,
    "isFree": null,
    "pmrAccessible": false,
    "kidsFriendly": null,
    "createdAt": {
      "_seconds": 1771835665,
      "_nanoseconds": 0
    },
    "updatedAt": "2026-02-23T09:34:25.203909"
  },
  {
    "id": "osm_9130524804",
    "name": "POI sans nom",
    "lat": 43.1411634,
    "lng": 5.9104543,
    "location": {
      "_latitude": 43.1411634,
      "_longitude": 5.9104543
    },
    "description": "Point d'intérêt: POI sans nom",
    "category": "culture",
    "categoryGroup": "Culture",
    "categoryItem": "artwork",
    "city": "Toulon",
    "departmentCode": "83",
    "imageUrls": [],
    "images": [],
    "websiteUrl": null,
    "website": null,
    "source": "openstreetmap",
    "osmId": 9130524804,
    "isPublic": true,
    "isValidated": true,
    "isFree": null,
    "pmrAccessible": false,
    "kidsFriendly": null,
    "createdAt": {
      "_seconds": 1771835665,
      "_nanoseconds": 0
    },
    "updatedAt": "2026-02-23T09:34:25.203921"
  },
  {
    "id": "osm_9130643310",
    "name": "POI sans nom",
    "lat": 43.1252061,
    "lng": 5.8968677,
    "location": {
      "_latitude": 43.1252061,
      "_longitude": 5.8968677
    },
    "description": "Point d'intérêt: POI sans nom",
    "category": "culture",
    "categoryGroup": "Culture",
    "categoryItem": "artwork",
    "city": "Toulon",
    "departmentCode": "83",
    "imageUrls": [],
    "images": [],
    "websiteUrl": null,
    "website": null,
    "source": "openstreetmap",
    "osmId": 9130643310,
    "isPublic": true,
    "isValidated": true,
    "isFree": null,
    "pmrAccessible": false,
    "kidsFriendly": null,
    "createdAt": {
      "_seconds": 1771835665,
      "_nanoseconds": 0
    },
    "updatedAt": "2026-02-23T09:34:25.203931"
  },
  {
    "id": "osm_9149990894",
    "name": "POI sans nom",
    "lat": 43.1134595,
    "lng": 5.9350342,
    "location": {
      "_latitude": 43.1134595,
      "_longitude": 5.9350342
    },
    "description": "Point d'intérêt: POI sans nom",
    "category": "culture",
    "categoryGroup": "Culture",
    "categoryItem": "artwork",
    "city": "Toulon",
    "departmentCode": "83",
    "imageUrls": [],
    "images": [],
    "websiteUrl": null,
    "website": null,
    "source": "openstreetmap",
    "osmId": 9149990894,
    "isPublic": true,
    "isValidated": true,
    "isFree": null,
    "pmrAccessible": false,
    "kidsFriendly": null,
    "createdAt": {
      "_seconds": 1771835665,
      "_nanoseconds": 0
    },
    "updatedAt": "2026-02-23T09:34:25.203942"
  },
  {
    "id": "osm_9159521157",
    "name": "POI sans nom",
    "lat": 43.1215426,
    "lng": 5.9386526,
    "location": {
      "_latitude": 43.1215426,
      "_longitude": 5.9386526
    },
    "description": "Point d'intérêt: POI sans nom",
    "category": "culture",
    "categoryGroup": "Culture",
    "categoryItem": "artwork",
    "city": "Toulon",
    "departmentCode": "83",
    "imageUrls": [],
    "images": [],
    "websiteUrl": null,
    "website": null,
    "source": "openstreetmap",
    "osmId": 9159521157,
    "isPublic": true,
    "isValidated": true,
    "isFree": null,
    "pmrAccessible": false,
    "kidsFriendly": null,
    "createdAt": {
      "_seconds": 1771835665,
      "_nanoseconds": 0
    },
    "updatedAt": "2026-02-23T09:34:25.203952"
  },
  {
    "id": "osm_9168366947",
    "name": "POI sans nom",
    "lat": 43.1181857,
    "lng": 5.9359752,
    "location": {
      "_latitude": 43.1181857,
      "_longitude": 5.9359752
    },
    "description": "Point d'intérêt: POI sans nom",
    "category": "culture",
    "categoryGroup": "Culture",
    "categoryItem": "artwork",
    "city": "Toulon",
    "departmentCode": "83",
    "imageUrls": [],
    "images": [],
    "websiteUrl": null,
    "website": null,
    "source": "openstreetmap",
    "osmId": 9168366947,
    "isPublic": true,
    "isValidated": true,
    "isFree": null,
    "pmrAccessible": false,
    "kidsFriendly": null,
    "createdAt": {
      "_seconds": 1771835665,
      "_nanoseconds": 0
    },
    "updatedAt": "2026-02-23T09:34:25.203963"
  },
  {
    "id": "osm_9176417562",
    "name": "POI sans nom",
    "lat": 43.1269128,
    "lng": 5.9350527,
    "location": {
      "_latitude": 43.1269128,
      "_longitude": 5.9350527
    },
    "description": "Point d'intérêt: POI sans nom",
    "category": "culture",
    "categoryGroup": "Culture",
    "categoryItem": "artwork",
    "city": "Toulon",
    "departmentCode": "83",
    "imageUrls": [],
    "images": [],
    "websiteUrl": null,
    "website": null,
    "source": "openstreetmap",
    "osmId": 9176417562,
    "isPublic": true,
    "isValidated": true,
    "isFree": null,
    "pmrAccessible": false,
    "kidsFriendly": null,
    "createdAt": {
      "_seconds": 1771835665,
      "_nanoseconds": 0
    },
    "updatedAt": "2026-02-23T09:34:25.203974"
  },
  {
    "id": "osm_9176417565",
    "name": "POI sans nom",
    "lat": 43.1279626,
    "lng": 5.9349084,
    "location": {
      "_latitude": 43.1279626,
      "_longitude": 5.9349084
    },
    "description": "Point d'intérêt: POI sans nom",
    "category": "culture",
    "categoryGroup": "Culture",
    "categoryItem": "artwork",
    "city": "Toulon",
    "departmentCode": "83",
    "imageUrls": [],
    "images": [],
    "websiteUrl": null,
    "website": null,
    "source": "openstreetmap",
    "osmId": 9176417565,
    "isPublic": true,
    "isValidated": true,
    "isFree": null,
    "pmrAccessible": false,
    "kidsFriendly": null,
    "createdAt": {
      "_seconds": 1771835665,
      "_nanoseconds": 0
    },
    "updatedAt": "2026-02-23T09:34:25.203985"
  },
  {
    "id": "osm_9176417581",
    "name": "POI sans nom",
    "lat": 43.1295377,
    "lng": 5.9284836,
    "location": {
      "_latitude": 43.1295377,
      "_longitude": 5.9284836
    },
    "description": "Point d'intérêt: POI sans nom",
    "category": "culture",
    "categoryGroup": "Culture",
    "categoryItem": "artwork",
    "city": "Toulon",
    "departmentCode": "83",
    "imageUrls": [],
    "images": [],
    "websiteUrl": null,
    "website": null,
    "source": "openstreetmap",
    "osmId": 9176417581,
    "isPublic": true,
    "isValidated": true,
    "isFree": null,
    "pmrAccessible": false,
    "kidsFriendly": null,
    "createdAt": {
      "_seconds": 1771835665,
      "_nanoseconds": 0
    },
    "updatedAt": "2026-02-23T09:34:25.203996"
  },
  {
    "id": "osm_9176782118",
    "name": "POI sans nom",
    "lat": 43.1267705,
    "lng": 5.9262308,
    "location": {
      "_latitude": 43.1267705,
      "_longitude": 5.9262308
    },
    "description": "Point d'intérêt: POI sans nom",
    "category": "culture",
    "categoryGroup": "Culture",
    "categoryItem": "artwork",
    "city": "Toulon",
    "departmentCode": "83",
    "imageUrls": [],
    "images": [],
    "websiteUrl": null,
    "website": null,
    "source": "openstreetmap",
    "osmId": 9176782118,
    "isPublic": true,
    "isValidated": true,
    "isFree": null,
    "pmrAccessible": false,
    "kidsFriendly": null,
    "createdAt": {
      "_seconds": 1771835665,
      "_nanoseconds": 0
    },
    "updatedAt": "2026-02-23T09:34:25.204012"
  },
  {
    "id": "osm_9176782132",
    "name": "POI sans nom",
    "lat": 43.1270576,
    "lng": 5.9270123,
    "location": {
      "_latitude": 43.1270576,
      "_longitude": 5.9270123
    },
    "description": "Point d'intérêt: POI sans nom",
    "category": "culture",
    "categoryGroup": "Culture",
    "categoryItem": "artwork",
    "city": "Toulon",
    "departmentCode": "83",
    "imageUrls": [],
    "images": [],
    "websiteUrl": null,
    "website": null,
    "source": "openstreetmap",
    "osmId": 9176782132,
    "isPublic": true,
    "isValidated": true,
    "isFree": null,
    "pmrAccessible": false,
    "kidsFriendly": null,
    "createdAt": {
      "_seconds": 1771835665,
      "_nanoseconds": 0
    },
    "updatedAt": "2026-02-23T09:34:25.204023"
  },
  {
    "id": "osm_9176782156",
    "name": "POI sans nom",
    "lat": 43.126201,
    "lng": 5.9267733,
    "location": {
      "_latitude": 43.126201,
      "_longitude": 5.9267733
    },
    "description": "Point d'intérêt: POI sans nom",
    "category": "culture",
    "categoryGroup": "Culture",
    "categoryItem": "artwork",
    "city": "Toulon",
    "departmentCode": "83",
    "imageUrls": [],
    "images": [],
    "websiteUrl": null,
    "website": null,
    "source": "openstreetmap",
    "osmId": 9176782156,
    "isPublic": true,
    "isValidated": true,
    "isFree": null,
    "pmrAccessible": false,
    "kidsFriendly": null,
    "createdAt": {
      "_seconds": 1771835665,
      "_nanoseconds": 0
    },
    "updatedAt": "2026-02-23T09:34:25.204034"
  },
  {
    "id": "osm_9178477156",
    "name": "POI sans nom",
    "lat": 43.0937912,
    "lng": 5.8393123,
    "location": {
      "_latitude": 43.0937912,
      "_longitude": 5.8393123
    },
    "description": "Point d'intérêt: POI sans nom",
    "category": "culture",
    "categoryGroup": "Culture",
    "categoryItem": "artwork",
    "city": "Toulon",
    "departmentCode": "83",
    "imageUrls": [],
    "images": [],
    "websiteUrl": null,
    "website": null,
    "source": "openstreetmap",
    "osmId": 9178477156,
    "isPublic": true,
    "isValidated": true,
    "isFree": null,
    "pmrAccessible": false,
    "kidsFriendly": null,
    "createdAt": {
      "_seconds": 1771835665,
      "_nanoseconds": 0
    },
    "updatedAt": "2026-02-23T09:34:25.204045"
  },
  {
    "id": "osm_9909434747",
    "name": "POI sans nom",
    "lat": 43.1023006,
    "lng": 5.881025,
    "location": {
      "_latitude": 43.1023006,
      "_longitude": 5.881025
    },
    "description": "Point d'intérêt: POI sans nom",
    "category": "culture",
    "categoryGroup": "Culture",
    "categoryItem": "artwork",
    "city": "Toulon",
    "departmentCode": "83",
    "imageUrls": [],
    "images": [],
    "websiteUrl": null,
    "website": null,
    "source": "openstreetmap",
    "osmId": 9909434747,
    "isPublic": true,
    "isValidated": true,
    "isFree": null,
    "pmrAccessible": false,
    "kidsFriendly": null,
    "createdAt": {
      "_seconds": 1771835665,
      "_nanoseconds": 0
    },
    "updatedAt": "2026-02-23T09:34:25.204056"
  },
  {
    "id": "osm_9909535376",
    "name": "POI sans nom",
    "lat": 43.102455,
    "lng": 5.8812109,
    "location": {
      "_latitude": 43.102455,
      "_longitude": 5.8812109
    },
    "description": "Point d'intérêt: POI sans nom",
    "category": "culture",
    "categoryGroup": "Culture",
    "categoryItem": "artwork",
    "city": "Toulon",
    "departmentCode": "83",
    "imageUrls": [],
    "images": [],
    "websiteUrl": null,
    "website": null,
    "source": "openstreetmap",
    "osmId": 9909535376,
    "isPublic": true,
    "isValidated": true,
    "isFree": null,
    "pmrAccessible": false,
    "kidsFriendly": null,
    "createdAt": {
      "_seconds": 1771835665,
      "_nanoseconds": 0
    },
    "updatedAt": "2026-02-23T09:34:25.204066"
  },
  {
    "id": "osm_9909583837",
    "name": "POI sans nom",
    "lat": 43.1030549,
    "lng": 5.8851721,
    "location": {
      "_latitude": 43.1030549,
      "_longitude": 5.8851721
    },
    "description": "Point d'intérêt: POI sans nom",
    "category": "culture",
    "categoryGroup": "Culture",
    "categoryItem": "artwork",
    "city": "Toulon",
    "departmentCode": "83",
    "imageUrls": [],
    "images": [],
    "websiteUrl": null,
    "website": null,
    "source": "openstreetmap",
    "osmId": 9909583837,
    "isPublic": true,
    "isValidated": true,
    "isFree": null,
    "pmrAccessible": false,
    "kidsFriendly": null,
    "createdAt": {
      "_seconds": 1771835665,
      "_nanoseconds": 0
    },
    "updatedAt": "2026-02-23T09:34:25.204077"
  },
  {
    "id": "osm_9914223496",
    "name": "POI sans nom",
    "lat": 43.1201747,
    "lng": 5.9334256,
    "location": {
      "_latitude": 43.1201747,
      "_longitude": 5.9334256
    },
    "description": "Point d'intérêt: POI sans nom",
    "category": "culture",
    "categoryGroup": "Culture",
    "categoryItem": "artwork",
    "city": "Toulon",
    "departmentCode": "83",
    "imageUrls": [],
    "images": [],
    "websiteUrl": null,
    "website": null,
    "source": "openstreetmap",
    "osmId": 9914223496,
    "isPublic": true,
    "isValidated": true,
    "isFree": null,
    "pmrAccessible": false,
    "kidsFriendly": null,
    "createdAt": {
      "_seconds": 1771835665,
      "_nanoseconds": 0
    },
    "updatedAt": "2026-02-23T09:34:25.204087"
  },
  {
    "id": "osm_10039870542",
    "name": "Musée Balaguier",
    "lat": 43.0943859,
    "lng": 5.9109753,
    "location": {
      "_latitude": 43.0943859,
      "_longitude": 5.9109753
    },
    "description": "Point d'intérêt: Musée Balaguier",
    "category": "culture",
    "categoryGroup": "Culture",
    "categoryItem": "museum",
    "city": "Toulon",
    "departmentCode": "83",
    "imageUrls": [],
    "images": [],
    "websiteUrl": null,
    "website": null,
    "source": "openstreetmap",
    "osmId": 10039870542,
    "isPublic": true,
    "isValidated": true,
    "isFree": null,
    "pmrAccessible": false,
    "kidsFriendly": null,
    "createdAt": {
      "_seconds": 1771835665,
      "_nanoseconds": 0
    },
    "updatedAt": "2026-02-23T09:34:25.204098"
  },
  {
    "id": "osm_10801430827",
    "name": "Galerie du Canon",
    "lat": 43.1228421,
    "lng": 5.9305643,
    "location": {
      "_latitude": 43.1228421,
      "_longitude": 5.9305643
    },
    "description": "Point d'intérêt: Galerie du Canon",
    "category": "culture",
    "categoryGroup": "Culture",
    "categoryItem": "gallery",
    "city": "Toulon",
    "departmentCode": "83",
    "imageUrls": [],
    "images": [],
    "websiteUrl": null,
    "website": null,
    "source": "openstreetmap",
    "osmId": 10801430827,
    "isPublic": true,
    "isValidated": true,
    "isFree": null,
    "pmrAccessible": false,
    "kidsFriendly": null,
    "createdAt": {
      "_seconds": 1771835665,
      "_nanoseconds": 0
    },
    "updatedAt": "2026-02-23T09:34:25.204109"
  },
  {
    "id": "osm_10801483317",
    "name": "Contenus Débordants",
    "lat": 43.1230859,
    "lng": 5.9315082,
    "location": {
      "_latitude": 43.1230859,
      "_longitude": 5.9315082
    },
    "description": "Point d'intérêt: Contenus Débordants",
    "category": "culture",
    "categoryGroup": "Culture",
    "categoryItem": "gallery",
    "city": "Toulon",
    "departmentCode": "83",
    "imageUrls": [],
    "images": [],
    "websiteUrl": null,
    "website": null,
    "source": "openstreetmap",
    "osmId": 10801483317,
    "isPublic": true,
    "isValidated": true,
    "isFree": null,
    "pmrAccessible": false,
    "kidsFriendly": null,
    "createdAt": {
      "_seconds": 1771835665,
      "_nanoseconds": 0
    },
    "updatedAt": "2026-02-23T09:34:25.204126"
  },
  {
    "id": "osm_10819428031",
    "name": "La galerie 15",
    "lat": 43.1227574,
    "lng": 5.9312117,
    "location": {
      "_latitude": 43.1227574,
      "_longitude": 5.9312117
    },
    "description": "Point d'intérêt: La galerie 15",
    "category": "culture",
    "categoryGroup": "Culture",
    "categoryItem": "gallery",
    "city": "Toulon",
    "departmentCode": "83",
    "imageUrls": [],
    "images": [],
    "websiteUrl": null,
    "website": null,
    "source": "openstreetmap",
    "osmId": 10819428031,
    "isPublic": true,
    "isValidated": true,
    "isFree": null,
    "pmrAccessible": false,
    "kidsFriendly": null,
    "createdAt": {
      "_seconds": 1771835665,
      "_nanoseconds": 0
    },
    "updatedAt": "2026-02-23T09:34:25.204137"
  },
  {
    "id": "osm_10819473362",
    "name": "New Arts Gallery",
    "lat": 43.1241326,
    "lng": 5.9310224,
    "location": {
      "_latitude": 43.1241326,
      "_longitude": 5.9310224
    },
    "description": "Point d'intérêt: New Arts Gallery",
    "category": "culture",
    "categoryGroup": "Culture",
    "categoryItem": "gallery",
    "city": "Toulon",
    "departmentCode": "83",
    "imageUrls": [],
    "images": [],
    "websiteUrl": null,
    "website": null,
    "source": "openstreetmap",
    "osmId": 10819473362,
    "isPublic": true,
    "isValidated": true,
    "isFree": null,
    "pmrAccessible": false,
    "kidsFriendly": null,
    "createdAt": {
      "_seconds": 1771835665,
      "_nanoseconds": 0
    },
    "updatedAt": "2026-02-23T09:34:25.204153"
  },
  {
    "id": "osm_11178381991",
    "name": "isotélo",
    "lat": 43.1227075,
    "lng": 5.9316606,
    "location": {
      "_latitude": 43.1227075,
      "_longitude": 5.9316606
    },
    "description": "Point d'intérêt: isotélo",
    "category": "culture",
    "categoryGroup": "Culture",
    "categoryItem": "gallery",
    "city": "Toulon",
    "departmentCode": "83",
    "imageUrls": [],
    "images": [],
    "websiteUrl": null,
    "website": null,
    "source": "openstreetmap",
    "osmId": 11178381991,
    "isPublic": true,
    "isValidated": true,
    "isFree": null,
    "pmrAccessible": false,
    "kidsFriendly": null,
    "createdAt": {
      "_seconds": 1771835665,
      "_nanoseconds": 0
    },
    "updatedAt": "2026-02-23T09:34:25.204164"
  },
  {
    "id": "osm_11178385791",
    "name": "Zétoil des Mers",
    "lat": 43.1226671,
    "lng": 5.9316005,
    "location": {
      "_latitude": 43.1226671,
      "_longitude": 5.9316005
    },
    "description": "Point d'intérêt: Zétoil des Mers",
    "category": "culture",
    "categoryGroup": "Culture",
    "categoryItem": "gallery",
    "city": "Toulon",
    "departmentCode": "83",
    "imageUrls": [],
    "images": [],
    "websiteUrl": null,
    "website": null,
    "source": "openstreetmap",
    "osmId": 11178385791,
    "isPublic": true,
    "isValidated": true,
    "isFree": null,
    "pmrAccessible": false,
    "kidsFriendly": null,
    "createdAt": {
      "_seconds": 1771835665,
      "_nanoseconds": 0
    },
    "updatedAt": "2026-02-23T09:34:25.204175"
  },
  {
    "id": "osm_11256009197",
    "name": "Musée d'Histoire de Toulon et de sa Région (Expositions temporaires)",
    "lat": 43.1208434,
    "lng": 5.9342597,
    "location": {
      "_latitude": 43.1208434,
      "_longitude": 5.9342597
    },
    "description": "Point d'intérêt: Musée d'Histoire de Toulon et de sa Région (Expositions temporaires)",
    "category": "culture",
    "categoryGroup": "Culture",
    "categoryItem": "museum",
    "city": "Toulon",
    "departmentCode": "83",
    "imageUrls": [],
    "images": [],
    "websiteUrl": null,
    "website": null,
    "source": "openstreetmap",
    "osmId": 11256009197,
    "isPublic": true,
    "isValidated": true,
    "isFree": null,
    "pmrAccessible": false,
    "kidsFriendly": null,
    "createdAt": {
      "_seconds": 1771835665,
      "_nanoseconds": 0
    },
    "updatedAt": "2026-02-23T09:34:25.204186"
  },
  {
    "id": "osm_11341297862",
    "name": "POI sans nom",
    "lat": 43.1277759,
    "lng": 5.9366956,
    "location": {
      "_latitude": 43.1277759,
      "_longitude": 5.9366956
    },
    "description": "Point d'intérêt: POI sans nom",
    "category": "culture",
    "categoryGroup": "Culture",
    "categoryItem": "artwork",
    "city": "Toulon",
    "departmentCode": "83",
    "imageUrls": [],
    "images": [],
    "websiteUrl": null,
    "website": null,
    "source": "openstreetmap",
    "osmId": 11341297862,
    "isPublic": true,
    "isValidated": true,
    "isFree": null,
    "pmrAccessible": false,
    "kidsFriendly": null,
    "createdAt": {
      "_seconds": 1771835665,
      "_nanoseconds": 0
    },
    "updatedAt": "2026-02-23T09:34:25.204197"
  },
  {
    "id": "osm_11414647427",
    "name": "L'Humilité",
    "lat": 43.1237628,
    "lng": 5.9333671,
    "location": {
      "_latitude": 43.1237628,
      "_longitude": 5.9333671
    },
    "description": "Point d'intérêt: L'Humilité",
    "category": "culture",
    "categoryGroup": "Culture",
    "categoryItem": "gallery",
    "city": "Toulon",
    "departmentCode": "83",
    "imageUrls": [],
    "images": [],
    "websiteUrl": null,
    "website": null,
    "source": "openstreetmap",
    "osmId": 11414647427,
    "isPublic": true,
    "isValidated": true,
    "isFree": null,
    "pmrAccessible": false,
    "kidsFriendly": null,
    "createdAt": {
      "_seconds": 1771835665,
      "_nanoseconds": 0
    },
    "updatedAt": "2026-02-23T09:34:25.204208"
  },
  {
    "id": "osm_11486470353",
    "name": "Galerie estades",
    "lat": 43.1206043,
    "lng": 5.932775,
    "location": {
      "_latitude": 43.1206043,
      "_longitude": 5.932775
    },
    "description": "Point d'intérêt: Galerie estades",
    "category": "culture",
    "categoryGroup": "Culture",
    "categoryItem": "gallery",
    "city": "Toulon",
    "departmentCode": "83",
    "imageUrls": [],
    "images": [],
    "websiteUrl": null,
    "website": null,
    "source": "openstreetmap",
    "osmId": 11486470353,
    "isPublic": true,
    "isValidated": true,
    "isFree": null,
    "pmrAccessible": false,
    "kidsFriendly": null,
    "createdAt": {
      "_seconds": 1771835665,
      "_nanoseconds": 0
    },
    "updatedAt": "2026-02-23T09:34:25.204219"
  },
  {
    "id": "osm_11619002968",
    "name": "Théâtre Le Colbert",
    "lat": 43.1258804,
    "lng": 5.9334098,
    "location": {
      "_latitude": 43.1258804,
      "_longitude": 5.9334098
    },
    "description": "Point d'intérêt: Théâtre Le Colbert",
    "category": "culture",
    "categoryGroup": "Culture",
    "categoryItem": "theatre",
    "city": "Toulon",
    "departmentCode": "83",
    "imageUrls": [],
    "images": [],
    "websiteUrl": "https://www.lecolbert.fr/",
    "website": "https://www.lecolbert.fr/",
    "source": "openstreetmap",
    "osmId": 11619002968,
    "isPublic": true,
    "isValidated": true,
    "isFree": null,
    "pmrAccessible": false,
    "kidsFriendly": null,
    "createdAt": {
      "_seconds": 1771835665,
      "_nanoseconds": 0
    },
    "updatedAt": "2026-02-23T09:34:25.204229"
  },
  {
    "id": "osm_12224059254",
    "name": "POI sans nom",
    "lat": 43.0787856,
    "lng": 5.8975558,
    "location": {
      "_latitude": 43.0787856,
      "_longitude": 5.8975558
    },
    "description": "Point d'intérêt: POI sans nom",
    "category": "culture",
    "categoryGroup": "Culture",
    "categoryItem": "artwork",
    "city": "Toulon",
    "departmentCode": "83",
    "imageUrls": [],
    "images": [],
    "websiteUrl": null,
    "website": null,
    "source": "openstreetmap",
    "osmId": 12224059254,
    "isPublic": true,
    "isValidated": true,
    "isFree": null,
    "pmrAccessible": false,
    "kidsFriendly": null,
    "createdAt": {
      "_seconds": 1771835665,
      "_nanoseconds": 0
    },
    "updatedAt": "2026-02-23T09:34:25.204240"
  },
  {
    "id": "osm_12229769713",
    "name": "Espace Castillon",
    "lat": 43.1233964,
    "lng": 5.9340334,
    "location": {
      "_latitude": 43.1233964,
      "_longitude": 5.9340334
    },
    "description": "Point d'intérêt: Espace Castillon",
    "category": "culture",
    "categoryGroup": "Culture",
    "categoryItem": "gallery",
    "city": "Toulon",
    "departmentCode": "83",
    "imageUrls": [],
    "images": [],
    "websiteUrl": null,
    "website": null,
    "source": "openstreetmap",
    "osmId": 12229769713,
    "isPublic": true,
    "isValidated": true,
    "isFree": null,
    "pmrAccessible": false,
    "kidsFriendly": null,
    "createdAt": {
      "_seconds": 1771835665,
      "_nanoseconds": 0
    },
    "updatedAt": "2026-02-23T09:34:25.204252"
  },
  {
    "id": "osm_12260901977",
    "name": "POI sans nom",
    "lat": 43.0790621,
    "lng": 5.8936775,
    "location": {
      "_latitude": 43.0790621,
      "_longitude": 5.8936775
    },
    "description": "Point d'intérêt: POI sans nom",
    "category": "culture",
    "categoryGroup": "Culture",
    "categoryItem": "artwork",
    "city": "Toulon",
    "departmentCode": "83",
    "imageUrls": [],
    "images": [],
    "websiteUrl": null,
    "website": null,
    "source": "openstreetmap",
    "osmId": 12260901977,
    "isPublic": true,
    "isValidated": true,
    "isFree": null,
    "pmrAccessible": false,
    "kidsFriendly": null,
    "createdAt": {
      "_seconds": 1771835665,
      "_nanoseconds": 0
    },
    "updatedAt": "2026-02-23T09:34:25.204263"
  },
  {
    "id": "osm_12289637901",
    "name": "Batterie de Peyras",
    "lat": 43.0630603,
    "lng": 5.8609444,
    "location": {
      "_latitude": 43.0630603,
      "_longitude": 5.8609444
    },
    "description": "Point d'intérêt: Batterie de Peyras",
    "category": "culture",
    "categoryGroup": "Culture",
    "categoryItem": "museum",
    "city": "Toulon",
    "departmentCode": "83",
    "imageUrls": [
      "https://www.wikidata.org/wiki/Q15154172"
    ],
    "images": [
      "https://www.wikidata.org/wiki/Q15154172"
    ],
    "websiteUrl": "https://www.la-seyne.fr/decouvrir-la-ville/patrimoine/militaire/batterie-de-peyras/",
    "website": "https://www.la-seyne.fr/decouvrir-la-ville/patrimoine/militaire/batterie-de-peyras/",
    "source": "openstreetmap",
    "osmId": 12289637901,
    "isPublic": true,
    "isValidated": true,
    "isFree": null,
    "pmrAccessible": false,
    "kidsFriendly": null,
    "createdAt": {
      "_seconds": 1771835665,
      "_nanoseconds": 0
    },
    "updatedAt": "2026-02-23T09:34:25.204277"
  },
  {
    "id": "osm_12312698476",
    "name": "Albert Premier De Belgique",
    "lat": 43.1278558,
    "lng": 5.9292768,
    "location": {
      "_latitude": 43.1278558,
      "_longitude": 5.9292768
    },
    "description": "Point d'intérêt: Albert Premier De Belgique",
    "category": "culture",
    "categoryGroup": "Culture",
    "categoryItem": "artwork",
    "city": "Toulon",
    "departmentCode": "83",
    "imageUrls": [],
    "images": [],
    "websiteUrl": null,
    "website": null,
    "source": "openstreetmap",
    "osmId": 12312698476,
    "isPublic": true,
    "isValidated": true,
    "isFree": null,
    "pmrAccessible": false,
    "kidsFriendly": null,
    "createdAt": {
      "_seconds": 1771835665,
      "_nanoseconds": 0
    },
    "updatedAt": "2026-02-23T09:34:25.204296"
  },
  {
    "id": "osm_12339058454",
    "name": "POI sans nom",
    "lat": 43.1945779,
    "lng": 6.0361739,
    "location": {
      "_latitude": 43.1945779,
      "_longitude": 6.0361739
    },
    "description": "Point d'intérêt: POI sans nom",
    "category": "culture",
    "categoryGroup": "Culture",
    "categoryItem": "artwork",
    "city": "Toulon",
    "departmentCode": "83",
    "imageUrls": [],
    "images": [],
    "websiteUrl": null,
    "website": null,
    "source": "openstreetmap",
    "osmId": 12339058454,
    "isPublic": true,
    "isValidated": true,
    "isFree": null,
    "pmrAccessible": false,
    "kidsFriendly": null,
    "createdAt": {
      "_seconds": 1771835665,
      "_nanoseconds": 0
    },
    "updatedAt": "2026-02-23T09:34:25.204307"
  },
  {
    "id": "osm_12339058469",
    "name": "POI sans nom",
    "lat": 43.1945469,
    "lng": 6.0355546,
    "location": {
      "_latitude": 43.1945469,
      "_longitude": 6.0355546
    },
    "description": "Point d'intérêt: POI sans nom",
    "category": "culture",
    "categoryGroup": "Culture",
    "categoryItem": "artwork",
    "city": "Toulon",
    "departmentCode": "83",
    "imageUrls": [],
    "images": [],
    "websiteUrl": null,
    "website": null,
    "source": "openstreetmap",
    "osmId": 12339058469,
    "isPublic": true,
    "isValidated": true,
    "isFree": null,
    "pmrAccessible": false,
    "kidsFriendly": null,
    "createdAt": {
      "_seconds": 1771835665,
      "_nanoseconds": 0
    },
    "updatedAt": "2026-02-23T09:34:25.204318"
  },
  {
    "id": "osm_12345683209",
    "name": "POI sans nom",
    "lat": 43.0792865,
    "lng": 5.8941625,
    "location": {
      "_latitude": 43.0792865,
      "_longitude": 5.8941625
    },
    "description": "Point d'intérêt: POI sans nom",
    "category": "culture",
    "categoryGroup": "Culture",
    "categoryItem": "artwork",
    "city": "Toulon",
    "departmentCode": "83",
    "imageUrls": [],
    "images": [],
    "websiteUrl": null,
    "website": null,
    "source": "openstreetmap",
    "osmId": 12345683209,
    "isPublic": true,
    "isValidated": true,
    "isFree": null,
    "pmrAccessible": false,
    "kidsFriendly": null,
    "createdAt": {
      "_seconds": 1771835665,
      "_nanoseconds": 0
    },
    "updatedAt": "2026-02-23T09:34:25.204328"
  },
  {
    "id": "osm_12350671440",
    "name": "POI sans nom",
    "lat": 43.0947506,
    "lng": 5.9102769,
    "location": {
      "_latitude": 43.0947506,
      "_longitude": 5.9102769
    },
    "description": "Point d'intérêt: POI sans nom",
    "category": "culture",
    "categoryGroup": "Culture",
    "categoryItem": "artwork",
    "city": "Toulon",
    "departmentCode": "83",
    "imageUrls": [],
    "images": [],
    "websiteUrl": null,
    "website": null,
    "source": "openstreetmap",
    "osmId": 12350671440,
    "isPublic": true,
    "isValidated": true,
    "isFree": null,
    "pmrAccessible": false,
    "kidsFriendly": null,
    "createdAt": {
      "_seconds": 1771835665,
      "_nanoseconds": 0
    },
    "updatedAt": "2026-02-23T09:34:25.204339"
  },
  {
    "id": "osm_12350722128",
    "name": "Laborieux",
    "lat": 43.0948246,
    "lng": 5.910275,
    "location": {
      "_latitude": 43.0948246,
      "_longitude": 5.910275
    },
    "description": "Point d'intérêt: Laborieux",
    "category": "culture",
    "categoryGroup": "Culture",
    "categoryItem": "museum",
    "city": "Toulon",
    "departmentCode": "83",
    "imageUrls": [],
    "images": [],
    "websiteUrl": null,
    "website": null,
    "source": "openstreetmap",
    "osmId": 12350722128,
    "isPublic": true,
    "isValidated": true,
    "isFree": null,
    "pmrAccessible": false,
    "kidsFriendly": null,
    "createdAt": {
      "_seconds": 1771835665,
      "_nanoseconds": 0
    },
    "updatedAt": "2026-02-23T09:34:25.204446"
  },
  {
    "id": "osm_12387572275",
    "name": "POI sans nom",
    "lat": 43.0795289,
    "lng": 5.8968541,
    "location": {
      "_latitude": 43.0795289,
      "_longitude": 5.8968541
    },
    "description": "Point d'intérêt: POI sans nom",
    "category": "culture",
    "categoryGroup": "Culture",
    "categoryItem": "artwork",
    "city": "Toulon",
    "departmentCode": "83",
    "imageUrls": [],
    "images": [],
    "websiteUrl": null,
    "website": null,
    "source": "openstreetmap",
    "osmId": 12387572275,
    "isPublic": true,
    "isValidated": true,
    "isFree": null,
    "pmrAccessible": false,
    "kidsFriendly": null,
    "createdAt": {
      "_seconds": 1771835665,
      "_nanoseconds": 0
    },
    "updatedAt": "2026-02-23T09:34:25.204467"
  },
  {
    "id": "osm_12416566167",
    "name": "POI sans nom",
    "lat": 43.0800357,
    "lng": 5.8958582,
    "location": {
      "_latitude": 43.0800357,
      "_longitude": 5.8958582
    },
    "description": "Point d'intérêt: POI sans nom",
    "category": "culture",
    "categoryGroup": "Culture",
    "categoryItem": "artwork",
    "city": "Toulon",
    "departmentCode": "83",
    "imageUrls": [],
    "images": [],
    "websiteUrl": null,
    "website": null,
    "source": "openstreetmap",
    "osmId": 12416566167,
    "isPublic": true,
    "isValidated": true,
    "isFree": null,
    "pmrAccessible": false,
    "kidsFriendly": null,
    "createdAt": {
      "_seconds": 1771835665,
      "_nanoseconds": 0
    },
    "updatedAt": "2026-02-23T09:34:25.204481"
  },
  {
    "id": "osm_12463642711",
    "name": "Le Roi des Poissons",
    "lat": 43.1440592,
    "lng": 5.7872161,
    "location": {
      "_latitude": 43.1440592,
      "_longitude": 5.7872161
    },
    "description": "Point d'intérêt: Le Roi des Poissons",
    "category": "culture",
    "categoryGroup": "Culture",
    "categoryItem": "artwork",
    "city": "Toulon",
    "departmentCode": "83",
    "imageUrls": [],
    "images": [],
    "websiteUrl": null,
    "website": null,
    "source": "openstreetmap",
    "osmId": 12463642711,
    "isPublic": true,
    "isValidated": true,
    "isFree": null,
    "pmrAccessible": false,
    "kidsFriendly": null,
    "createdAt": {
      "_seconds": 1771835665,
      "_nanoseconds": 0
    },
    "updatedAt": "2026-02-23T09:34:25.204504"
  },
  {
    "id": "osm_12532351554",
    "name": "Jules Muraire Dit \"Raimu\"",
    "lat": 43.1242716,
    "lng": 5.9322524,
    "location": {
      "_latitude": 43.1242716,
      "_longitude": 5.9322524
    },
    "description": "Point d'intérêt: Jules Muraire Dit \"Raimu\"",
    "category": "culture",
    "categoryGroup": "Culture",
    "categoryItem": "artwork",
    "city": "Toulon",
    "departmentCode": "83",
    "imageUrls": [],
    "images": [],
    "websiteUrl": null,
    "website": null,
    "source": "openstreetmap",
    "osmId": 12532351554,
    "isPublic": true,
    "isValidated": true,
    "isFree": null,
    "pmrAccessible": false,
    "kidsFriendly": null,
    "createdAt": {
      "_seconds": 1771835665,
      "_nanoseconds": 0
    },
    "updatedAt": "2026-02-23T09:34:25.204516"
  },
  {
    "id": "osm_12561426576",
    "name": "POI sans nom",
    "lat": 43.0784362,
    "lng": 5.898364,
    "location": {
      "_latitude": 43.0784362,
      "_longitude": 5.898364
    },
    "description": "Point d'intérêt: POI sans nom",
    "category": "culture",
    "categoryGroup": "Culture",
    "categoryItem": "artwork",
    "city": "Toulon",
    "departmentCode": "83",
    "imageUrls": [],
    "images": [],
    "websiteUrl": null,
    "website": null,
    "source": "openstreetmap",
    "osmId": 12561426576,
    "isPublic": true,
    "isValidated": true,
    "isFree": null,
    "pmrAccessible": false,
    "kidsFriendly": null,
    "createdAt": {
      "_seconds": 1771835665,
      "_nanoseconds": 0
    },
    "updatedAt": "2026-02-23T09:34:25.204528"
  },
  {
    "id": "osm_12600822426",
    "name": "POI sans nom",
    "lat": 43.1023621,
    "lng": 5.8968959,
    "location": {
      "_latitude": 43.1023621,
      "_longitude": 5.8968959
    },
    "description": "Point d'intérêt: POI sans nom",
    "category": "culture",
    "categoryGroup": "Culture",
    "categoryItem": "artwork",
    "city": "Toulon",
    "departmentCode": "83",
    "imageUrls": [],
    "images": [],
    "websiteUrl": null,
    "website": null,
    "source": "openstreetmap",
    "osmId": 12600822426,
    "isPublic": true,
    "isValidated": true,
    "isFree": null,
    "pmrAccessible": false,
    "kidsFriendly": null,
    "createdAt": {
      "_seconds": 1771835665,
      "_nanoseconds": 0
    },
    "updatedAt": "2026-02-23T09:34:25.204539"
  },
  {
    "id": "osm_12600822446",
    "name": "Minotauros",
    "lat": 43.1011369,
    "lng": 5.8879026,
    "location": {
      "_latitude": 43.1011369,
      "_longitude": 5.8879026
    },
    "description": "Point d'intérêt: Minotauros",
    "category": "culture",
    "categoryGroup": "Culture",
    "categoryItem": "artwork",
    "city": "Toulon",
    "departmentCode": "83",
    "imageUrls": [],
    "images": [],
    "websiteUrl": null,
    "website": null,
    "source": "openstreetmap",
    "osmId": 12600822446,
    "isPublic": true,
    "isValidated": true,
    "isFree": null,
    "pmrAccessible": false,
    "kidsFriendly": null,
    "createdAt": {
      "_seconds": 1771835665,
      "_nanoseconds": 0
    },
    "updatedAt": "2026-02-23T09:34:25.204561"
  },
  {
    "id": "osm_12645153256",
    "name": "Le Bateau Sculpture",
    "lat": 43.1231155,
    "lng": 5.9312504,
    "location": {
      "_latitude": 43.1231155,
      "_longitude": 5.9312504
    },
    "description": "Point d'intérêt: Le Bateau Sculpture",
    "category": "culture",
    "categoryGroup": "Culture",
    "categoryItem": "artwork",
    "city": "Toulon",
    "departmentCode": "83",
    "imageUrls": [],
    "images": [],
    "websiteUrl": "https://toulon.fr/laissez-seduire/article/bateau-sculpture",
    "website": "https://toulon.fr/laissez-seduire/article/bateau-sculpture",
    "source": "openstreetmap",
    "osmId": 12645153256,
    "isPublic": true,
    "isValidated": true,
    "isFree": null,
    "pmrAccessible": false,
    "kidsFriendly": null,
    "createdAt": {
      "_seconds": 1771835665,
      "_nanoseconds": 0
    },
    "updatedAt": "2026-02-23T09:34:25.204572"
  },
  {
    "id": "osm_12673416691",
    "name": "POI sans nom",
    "lat": 43.1029656,
    "lng": 5.8847762,
    "location": {
      "_latitude": 43.1029656,
      "_longitude": 5.8847762
    },
    "description": "Point d'intérêt: POI sans nom",
    "category": "culture",
    "categoryGroup": "Culture",
    "categoryItem": "artwork",
    "city": "Toulon",
    "departmentCode": "83",
    "imageUrls": [],
    "images": [],
    "websiteUrl": null,
    "website": null,
    "source": "openstreetmap",
    "osmId": 12673416691,
    "isPublic": true,
    "isValidated": true,
    "isFree": null,
    "pmrAccessible": false,
    "kidsFriendly": null,
    "createdAt": {
      "_seconds": 1771835665,
      "_nanoseconds": 0
    },
    "updatedAt": "2026-02-23T09:34:25.204583"
  },
  {
    "id": "osm_12673421444",
    "name": "POI sans nom",
    "lat": 43.1031113,
    "lng": 5.8859075,
    "location": {
      "_latitude": 43.1031113,
      "_longitude": 5.8859075
    },
    "description": "Point d'intérêt: POI sans nom",
    "category": "culture",
    "categoryGroup": "Culture",
    "categoryItem": "artwork",
    "city": "Toulon",
    "departmentCode": "83",
    "imageUrls": [],
    "images": [],
    "websiteUrl": null,
    "website": null,
    "source": "openstreetmap",
    "osmId": 12673421444,
    "isPublic": true,
    "isValidated": true,
    "isFree": null,
    "pmrAccessible": false,
    "kidsFriendly": null,
    "createdAt": {
      "_seconds": 1771835665,
      "_nanoseconds": 0
    },
    "updatedAt": "2026-02-23T09:34:25.204594"
  },
  {
    "id": "osm_12673421451",
    "name": "POI sans nom",
    "lat": 43.1013591,
    "lng": 5.8839556,
    "location": {
      "_latitude": 43.1013591,
      "_longitude": 5.8839556
    },
    "description": "Point d'intérêt: POI sans nom",
    "category": "culture",
    "categoryGroup": "Culture",
    "categoryItem": "artwork",
    "city": "Toulon",
    "departmentCode": "83",
    "imageUrls": [],
    "images": [],
    "websiteUrl": null,
    "website": null,
    "source": "openstreetmap",
    "osmId": 12673421451,
    "isPublic": true,
    "isValidated": true,
    "isFree": null,
    "pmrAccessible": false,
    "kidsFriendly": null,
    "createdAt": {
      "_seconds": 1771835665,
      "_nanoseconds": 0
    },
    "updatedAt": "2026-02-23T09:34:25.204605"
  },
  {
    "id": "osm_12720623755",
    "name": "Musée Jean Aicard",
    "lat": 43.1832117,
    "lng": 6.0390241,
    "location": {
      "_latitude": 43.1832117,
      "_longitude": 6.0390241
    },
    "description": "Point d'intérêt: Musée Jean Aicard",
    "category": "culture",
    "categoryGroup": "Culture",
    "categoryItem": "museum",
    "city": "Toulon",
    "departmentCode": "83",
    "imageUrls": [],
    "images": [],
    "websiteUrl": null,
    "website": null,
    "source": "openstreetmap",
    "osmId": 12720623755,
    "isPublic": true,
    "isValidated": true,
    "isFree": null,
    "pmrAccessible": false,
    "kidsFriendly": null,
    "createdAt": {
      "_seconds": 1771835665,
      "_nanoseconds": 0
    },
    "updatedAt": "2026-02-23T09:34:25.204616"
  },
  {
    "id": "osm_12729306714",
    "name": "Musée du vêtement provençal",
    "lat": 43.1812868,
    "lng": 6.0398833,
    "location": {
      "_latitude": 43.1812868,
      "_longitude": 6.0398833
    },
    "description": "Point d'intérêt: Musée du vêtement provençal",
    "category": "culture",
    "categoryGroup": "Culture",
    "categoryItem": "museum",
    "city": "Toulon",
    "departmentCode": "83",
    "imageUrls": [],
    "images": [],
    "websiteUrl": null,
    "website": null,
    "source": "openstreetmap",
    "osmId": 12729306714,
    "isPublic": true,
    "isValidated": true,
    "isFree": null,
    "pmrAccessible": false,
    "kidsFriendly": null,
    "createdAt": {
      "_seconds": 1771835665,
      "_nanoseconds": 0
    },
    "updatedAt": "2026-02-23T09:34:25.204630"
  },
  {
    "id": "osm_12732424144",
    "name": "POI sans nom",
    "lat": 43.1222043,
    "lng": 5.9314469,
    "location": {
      "_latitude": 43.1222043,
      "_longitude": 5.9314469
    },
    "description": "Point d'intérêt: POI sans nom",
    "category": "culture",
    "categoryGroup": "Culture",
    "categoryItem": "artwork",
    "city": "Toulon",
    "departmentCode": "83",
    "imageUrls": [],
    "images": [],
    "websiteUrl": null,
    "website": null,
    "source": "openstreetmap",
    "osmId": 12732424144,
    "isPublic": true,
    "isValidated": true,
    "isFree": null,
    "pmrAccessible": false,
    "kidsFriendly": null,
    "createdAt": {
      "_seconds": 1771835665,
      "_nanoseconds": 0
    },
    "updatedAt": "2026-02-23T09:34:25.204648"
  },
  {
    "id": "osm_12732424146",
    "name": "POI sans nom",
    "lat": 43.1223308,
    "lng": 5.9316225,
    "location": {
      "_latitude": 43.1223308,
      "_longitude": 5.9316225
    },
    "description": "Point d'intérêt: POI sans nom",
    "category": "culture",
    "categoryGroup": "Culture",
    "categoryItem": "artwork",
    "city": "Toulon",
    "departmentCode": "83",
    "imageUrls": [],
    "images": [],
    "websiteUrl": null,
    "website": null,
    "source": "openstreetmap",
    "osmId": 12732424146,
    "isPublic": true,
    "isValidated": true,
    "isFree": null,
    "pmrAccessible": false,
    "kidsFriendly": null,
    "createdAt": {
      "_seconds": 1771835665,
      "_nanoseconds": 0
    },
    "updatedAt": "2026-02-23T09:34:25.204658"
  },
  {
    "id": "osm_12752909599",
    "name": "Le Discobole",
    "lat": 43.1162708,
    "lng": 5.9390585,
    "location": {
      "_latitude": 43.1162708,
      "_longitude": 5.9390585
    },
    "description": "Point d'intérêt: Le Discobole",
    "category": "culture",
    "categoryGroup": "Culture",
    "categoryItem": "artwork",
    "city": "Toulon",
    "departmentCode": "83",
    "imageUrls": [],
    "images": [],
    "websiteUrl": null,
    "website": null,
    "source": "openstreetmap",
    "osmId": 12752909599,
    "isPublic": true,
    "isValidated": true,
    "isFree": null,
    "pmrAccessible": false,
    "kidsFriendly": null,
    "createdAt": {
      "_seconds": 1771835665,
      "_nanoseconds": 0
    },
    "updatedAt": "2026-02-23T09:34:25.204669"
  },
  {
    "id": "osm_12762318489",
    "name": "Jules Raimu",
    "lat": 43.1238262,
    "lng": 5.933075,
    "location": {
      "_latitude": 43.1238262,
      "_longitude": 5.933075
    },
    "description": "Point d'intérêt: Jules Raimu",
    "category": "culture",
    "categoryGroup": "Culture",
    "categoryItem": "artwork",
    "city": "Toulon",
    "departmentCode": "83",
    "imageUrls": [],
    "images": [],
    "websiteUrl": null,
    "website": null,
    "source": "openstreetmap",
    "osmId": 12762318489,
    "isPublic": true,
    "isValidated": true,
    "isFree": null,
    "pmrAccessible": false,
    "kidsFriendly": null,
    "createdAt": {
      "_seconds": 1771835665,
      "_nanoseconds": 0
    },
    "updatedAt": "2026-02-23T09:34:25.204680"
  },
  {
    "id": "osm_12811187818",
    "name": "Galerie LISA",
    "lat": 43.1226606,
    "lng": 5.9317592,
    "location": {
      "_latitude": 43.1226606,
      "_longitude": 5.9317592
    },
    "description": "Point d'intérêt: Galerie LISA",
    "category": "culture",
    "categoryGroup": "Culture",
    "categoryItem": "gallery",
    "city": "Toulon",
    "departmentCode": "83",
    "imageUrls": [],
    "images": [],
    "websiteUrl": null,
    "website": null,
    "source": "openstreetmap",
    "osmId": 12811187818,
    "isPublic": true,
    "isValidated": true,
    "isFree": null,
    "pmrAccessible": false,
    "kidsFriendly": null,
    "createdAt": {
      "_seconds": 1771835665,
      "_nanoseconds": 0
    },
    "updatedAt": "2026-02-23T09:34:25.204690"
  },
  {
    "id": "osm_12871395661",
    "name": "POI sans nom",
    "lat": 43.1038069,
    "lng": 5.8812684,
    "location": {
      "_latitude": 43.1038069,
      "_longitude": 5.8812684
    },
    "description": "Point d'intérêt: POI sans nom",
    "category": "culture",
    "categoryGroup": "Culture",
    "categoryItem": "artwork",
    "city": "Toulon",
    "departmentCode": "83",
    "imageUrls": [],
    "images": [],
    "websiteUrl": null,
    "website": null,
    "source": "openstreetmap",
    "osmId": 12871395661,
    "isPublic": true,
    "isValidated": true,
    "isFree": null,
    "pmrAccessible": false,
    "kidsFriendly": null,
    "createdAt": {
      "_seconds": 1771835665,
      "_nanoseconds": 0
    },
    "updatedAt": "2026-02-23T09:34:25.204712"
  },
  {
    "id": "osm_12949025784",
    "name": "POI sans nom",
    "lat": 43.1067497,
    "lng": 5.8753533,
    "location": {
      "_latitude": 43.1067497,
      "_longitude": 5.8753533
    },
    "description": "Point d'intérêt: POI sans nom",
    "category": "culture",
    "categoryGroup": "Culture",
    "categoryItem": "artwork",
    "city": "Toulon",
    "departmentCode": "83",
    "imageUrls": [],
    "images": [],
    "websiteUrl": null,
    "website": null,
    "source": "openstreetmap",
    "osmId": 12949025784,
    "isPublic": true,
    "isValidated": true,
    "isFree": null,
    "pmrAccessible": false,
    "kidsFriendly": null,
    "createdAt": {
      "_seconds": 1771835665,
      "_nanoseconds": 0
    },
    "updatedAt": "2026-02-23T09:34:25.204724"
  },
  {
    "id": "osm_12951046634",
    "name": "POI sans nom",
    "lat": 43.1238104,
    "lng": 5.9326064,
    "location": {
      "_latitude": 43.1238104,
      "_longitude": 5.9326064
    },
    "description": "Point d'intérêt: POI sans nom",
    "category": "culture",
    "categoryGroup": "Culture",
    "categoryItem": "artwork",
    "city": "Toulon",
    "departmentCode": "83",
    "imageUrls": [],
    "images": [],
    "websiteUrl": null,
    "website": null,
    "source": "openstreetmap",
    "osmId": 12951046634,
    "isPublic": true,
    "isValidated": true,
    "isFree": null,
    "pmrAccessible": false,
    "kidsFriendly": null,
    "createdAt": {
      "_seconds": 1771835665,
      "_nanoseconds": 0
    },
    "updatedAt": "2026-02-23T09:34:25.204734"
  },
  {
    "id": "osm_13047909721",
    "name": "Fontaine Wallace",
    "lat": 43.1220655,
    "lng": 5.9337853,
    "location": {
      "_latitude": 43.1220655,
      "_longitude": 5.9337853
    },
    "description": "Point d'intérêt: Fontaine Wallace",
    "category": "culture",
    "categoryGroup": "Culture",
    "categoryItem": "artwork",
    "city": "Toulon",
    "departmentCode": "83",
    "imageUrls": [],
    "images": [],
    "websiteUrl": null,
    "website": null,
    "source": "openstreetmap",
    "osmId": 13047909721,
    "isPublic": true,
    "isValidated": true,
    "isFree": null,
    "pmrAccessible": false,
    "kidsFriendly": null,
    "createdAt": {
      "_seconds": 1771835665,
      "_nanoseconds": 0
    },
    "updatedAt": "2026-02-23T09:34:25.204745"
  },
  {
    "id": "osm_13416806219",
    "name": "Cinéma Francis Vebert",
    "lat": 43.1067657,
    "lng": 6.0281677,
    "location": {
      "_latitude": 43.1067657,
      "_longitude": 6.0281677
    },
    "description": "Point d'intérêt: Cinéma Francis Vebert",
    "category": "culture",
    "categoryGroup": "Culture",
    "categoryItem": "cinema",
    "city": "Toulon",
    "departmentCode": "83",
    "imageUrls": [],
    "images": [],
    "websiteUrl": "https://www.le-pradet.fr/vos-services/vie-culturelle/le-cinema/",
    "website": "https://www.le-pradet.fr/vos-services/vie-culturelle/le-cinema/",
    "source": "openstreetmap",
    "osmId": 13416806219,
    "isPublic": true,
    "isValidated": true,
    "isFree": null,
    "pmrAccessible": false,
    "kidsFriendly": null,
    "createdAt": {
      "_seconds": 1771835665,
      "_nanoseconds": 0
    },
    "updatedAt": "2026-02-23T09:34:25.204756"
  },
  {
    "id": "osm_13586434399",
    "name": "Philippe Tailliez",
    "lat": 43.0842185,
    "lng": 6.0177693,
    "location": {
      "_latitude": 43.0842185,
      "_longitude": 6.0177693
    },
    "description": "Point d'intérêt: Philippe Tailliez",
    "category": "culture",
    "categoryGroup": "Culture",
    "categoryItem": "artwork",
    "city": "Toulon",
    "departmentCode": "83",
    "imageUrls": [],
    "images": [],
    "websiteUrl": null,
    "website": null,
    "source": "openstreetmap",
    "osmId": 13586434399,
    "isPublic": true,
    "isValidated": true,
    "isFree": null,
    "pmrAccessible": false,
    "kidsFriendly": null,
    "createdAt": {
      "_seconds": 1771835665,
      "_nanoseconds": 0
    },
    "updatedAt": "2026-02-23T09:34:25.204766"
  },
  {
    "id": "osm_1790064490",
    "name": "Galerie d'art du rond point du péage de Bandol - Adaoust",
    "lat": 43.1424526,
    "lng": 5.770076,
    "location": {
      "_latitude": 43.1424526,
      "_longitude": 5.770076
    },
    "description": "Exposition permanente de l'artiste Sylvie Adaoust",
    "category": "culture",
    "categoryGroup": "Culture",
    "categoryItem": "artwork",
    "city": "La Seyne-sur-Mer",
    "departmentCode": "83",
    "imageUrls": [],
    "images": [],
    "websiteUrl": "https://www.1galerie.com/",
    "website": "https://www.1galerie.com/",
    "source": "openstreetmap",
    "osmId": 1790064490,
    "isPublic": true,
    "isValidated": true,
    "isFree": null,
    "pmrAccessible": false,
    "kidsFriendly": null,
    "createdAt": {
      "_seconds": 1771835666,
      "_nanoseconds": 0
    },
    "updatedAt": "2026-02-23T09:34:26.841232"
  },
  {
    "id": "osm_1965069907",
    "name": "Vénus sortant des flots",
    "lat": 43.0683605,
    "lng": 5.793354,
    "location": {
      "_latitude": 43.0683605,
      "_longitude": 5.793354
    },
    "description": "Point d'intérêt: Vénus sortant des flots",
    "category": "culture",
    "categoryGroup": "Culture",
    "categoryItem": "artwork",
    "city": "La Seyne-sur-Mer",
    "departmentCode": "83",
    "imageUrls": [],
    "images": [],
    "websiteUrl": null,
    "website": null,
    "source": "openstreetmap",
    "osmId": 1965069907,
    "isPublic": true,
    "isValidated": true,
    "isFree": null,
    "pmrAccessible": false,
    "kidsFriendly": null,
    "createdAt": {
      "_seconds": 1771835666,
      "_nanoseconds": 0
    },
    "updatedAt": "2026-02-23T09:34:26.841257"
  },
  {
    "id": "osm_3637363613",
    "name": "Neptune",
    "lat": 43.1276319,
    "lng": 5.7482941,
    "location": {
      "_latitude": 43.1276319,
      "_longitude": 5.7482941
    },
    "description": "Point d'intérêt: Neptune",
    "category": "culture",
    "categoryGroup": "Culture",
    "categoryItem": "artwork",
    "city": "La Seyne-sur-Mer",
    "departmentCode": "83",
    "imageUrls": [],
    "images": [],
    "websiteUrl": null,
    "website": null,
    "source": "openstreetmap",
    "osmId": 3637363613,
    "isPublic": true,
    "isValidated": true,
    "isFree": null,
    "pmrAccessible": false,
    "kidsFriendly": null,
    "createdAt": {
      "_seconds": 1771835666,
      "_nanoseconds": 0
    },
    "updatedAt": "2026-02-23T09:34:26.841272"
  },
  {
    "id": "osm_3637363636",
    "name": "Nul bien sans peine",
    "lat": 43.1281736,
    "lng": 5.7524496,
    "location": {
      "_latitude": 43.1281736,
      "_longitude": 5.7524496
    },
    "description": "Point d'intérêt: Nul bien sans peine",
    "category": "culture",
    "categoryGroup": "Culture",
    "categoryItem": "artwork",
    "city": "La Seyne-sur-Mer",
    "departmentCode": "83",
    "imageUrls": [],
    "images": [],
    "websiteUrl": null,
    "website": null,
    "source": "openstreetmap",
    "osmId": 3637363636,
    "isPublic": true,
    "isValidated": true,
    "isFree": null,
    "pmrAccessible": false,
    "kidsFriendly": null,
    "createdAt": {
      "_seconds": 1771835666,
      "_nanoseconds": 0
    },
    "updatedAt": "2026-02-23T09:34:26.841281"
  },
  {
    "id": "osm_3916168428",
    "name": "POI sans nom",
    "lat": 43.1271599,
    "lng": 5.7495093,
    "location": {
      "_latitude": 43.1271599,
      "_longitude": 5.7495093
    },
    "description": "Point d'intérêt: POI sans nom",
    "category": "culture",
    "categoryGroup": "Culture",
    "categoryItem": "artwork",
    "city": "La Seyne-sur-Mer",
    "departmentCode": "83",
    "imageUrls": [],
    "images": [],
    "websiteUrl": null,
    "website": null,
    "source": "openstreetmap",
    "osmId": 3916168428,
    "isPublic": true,
    "isValidated": true,
    "isFree": null,
    "pmrAccessible": false,
    "kidsFriendly": null,
    "createdAt": {
      "_seconds": 1771835666,
      "_nanoseconds": 0
    },
    "updatedAt": "2026-02-23T09:34:26.841290"
  },
  {
    "id": "osm_3916168437",
    "name": "POI sans nom",
    "lat": 43.1279397,
    "lng": 5.7481925,
    "location": {
      "_latitude": 43.1279397,
      "_longitude": 5.7481925
    },
    "description": "Point d'intérêt: POI sans nom",
    "category": "culture",
    "categoryGroup": "Culture",
    "categoryItem": "artwork",
    "city": "La Seyne-sur-Mer",
    "departmentCode": "83",
    "imageUrls": [],
    "images": [],
    "websiteUrl": null,
    "website": null,
    "source": "openstreetmap",
    "osmId": 3916168437,
    "isPublic": true,
    "isValidated": true,
    "isFree": null,
    "pmrAccessible": false,
    "kidsFriendly": null,
    "createdAt": {
      "_seconds": 1771835666,
      "_nanoseconds": 0
    },
    "updatedAt": "2026-02-23T09:34:26.841300"
  },
  {
    "id": "osm_3916168439",
    "name": "POI sans nom",
    "lat": 43.1279616,
    "lng": 5.7484335,
    "location": {
      "_latitude": 43.1279616,
      "_longitude": 5.7484335
    },
    "description": "Point d'intérêt: POI sans nom",
    "category": "culture",
    "categoryGroup": "Culture",
    "categoryItem": "artwork",
    "city": "La Seyne-sur-Mer",
    "departmentCode": "83",
    "imageUrls": [],
    "images": [],
    "websiteUrl": null,
    "website": null,
    "source": "openstreetmap",
    "osmId": 3916168439,
    "isPublic": true,
    "isValidated": true,
    "isFree": null,
    "pmrAccessible": false,
    "kidsFriendly": null,
    "createdAt": {
      "_seconds": 1771835666,
      "_nanoseconds": 0
    },
    "updatedAt": "2026-02-23T09:34:26.841322"
  },
  {
    "id": "osm_3916168442",
    "name": "POI sans nom",
    "lat": 43.1280099,
    "lng": 5.748237,
    "location": {
      "_latitude": 43.1280099,
      "_longitude": 5.748237
    },
    "description": "Point d'intérêt: POI sans nom",
    "category": "culture",
    "categoryGroup": "Culture",
    "categoryItem": "artwork",
    "city": "La Seyne-sur-Mer",
    "departmentCode": "83",
    "imageUrls": [],
    "images": [],
    "websiteUrl": null,
    "website": null,
    "source": "openstreetmap",
    "osmId": 3916168442,
    "isPublic": true,
    "isValidated": true,
    "isFree": null,
    "pmrAccessible": false,
    "kidsFriendly": null,
    "createdAt": {
      "_seconds": 1771835666,
      "_nanoseconds": 0
    },
    "updatedAt": "2026-02-23T09:34:26.841332"
  },
  {
    "id": "osm_3916168443",
    "name": "POI sans nom",
    "lat": 43.128013,
    "lng": 5.7483115,
    "location": {
      "_latitude": 43.128013,
      "_longitude": 5.7483115
    },
    "description": "Point d'intérêt: POI sans nom",
    "category": "culture",
    "categoryGroup": "Culture",
    "categoryItem": "artwork",
    "city": "La Seyne-sur-Mer",
    "departmentCode": "83",
    "imageUrls": [],
    "images": [],
    "websiteUrl": null,
    "website": null,
    "source": "openstreetmap",
    "osmId": 3916168443,
    "isPublic": true,
    "isValidated": true,
    "isFree": null,
    "pmrAccessible": false,
    "kidsFriendly": null,
    "createdAt": {
      "_seconds": 1771835666,
      "_nanoseconds": 0
    },
    "updatedAt": "2026-02-23T09:34:26.841340"
  },
  {
    "id": "osm_6203408741",
    "name": "Caméra",
    "lat": 43.1363446,
    "lng": 5.7522601,
    "location": {
      "_latitude": 43.1363446,
      "_longitude": 5.7522601
    },
    "description": "Point d'intérêt: Caméra",
    "category": "culture",
    "categoryGroup": "Culture",
    "categoryItem": "cinema",
    "city": "La Seyne-sur-Mer",
    "departmentCode": "83",
    "imageUrls": [],
    "images": [],
    "websiteUrl": null,
    "website": null,
    "source": "openstreetmap",
    "osmId": 6203408741,
    "isPublic": true,
    "isValidated": true,
    "isFree": null,
    "pmrAccessible": false,
    "kidsFriendly": null,
    "createdAt": {
      "_seconds": 1771835666,
      "_nanoseconds": 0
    },
    "updatedAt": "2026-02-23T09:34:26.841350"
  },
  {
    "id": "osm_9945289539",
    "name": "POI sans nom",
    "lat": 43.1358842,
    "lng": 5.7548603,
    "location": {
      "_latitude": 43.1358842,
      "_longitude": 5.7548603
    },
    "description": "Point d'intérêt: POI sans nom",
    "category": "culture",
    "categoryGroup": "Culture",
    "categoryItem": "artwork",
    "city": "La Seyne-sur-Mer",
    "departmentCode": "83",
    "imageUrls": [],
    "images": [],
    "websiteUrl": null,
    "website": null,
    "source": "openstreetmap",
    "osmId": 9945289539,
    "isPublic": true,
    "isValidated": true,
    "isFree": null,
    "pmrAccessible": false,
    "kidsFriendly": null,
    "createdAt": {
      "_seconds": 1771835666,
      "_nanoseconds": 0
    },
    "updatedAt": "2026-02-23T09:34:26.841369"
  },
  {
    "id": "osm_12867114324",
    "name": "POI sans nom",
    "lat": 43.1356243,
    "lng": 5.7547114,
    "location": {
      "_latitude": 43.1356243,
      "_longitude": 5.7547114
    },
    "description": "Point d'intérêt: POI sans nom",
    "category": "culture",
    "categoryGroup": "Culture",
    "categoryItem": "artwork",
    "city": "La Seyne-sur-Mer",
    "departmentCode": "83",
    "imageUrls": [],
    "images": [],
    "websiteUrl": null,
    "website": null,
    "source": "openstreetmap",
    "osmId": 12867114324,
    "isPublic": true,
    "isValidated": true,
    "isFree": null,
    "pmrAccessible": false,
    "kidsFriendly": null,
    "createdAt": {
      "_seconds": 1771835666,
      "_nanoseconds": 0
    },
    "updatedAt": "2026-02-23T09:34:26.841395"
  },
  {
    "id": "osm_1866973965",
    "name": "Victor Hugo",
    "lat": 43.4561941,
    "lng": 6.6877003,
    "location": {
      "_latitude": 43.4561941,
      "_longitude": 6.6877003
    },
    "description": "Point d'intérêt: Victor Hugo",
    "category": "culture",
    "categoryGroup": "Culture",
    "categoryItem": "theatre",
    "city": "Fréjus",
    "departmentCode": "83",
    "imageUrls": [],
    "images": [],
    "websiteUrl": null,
    "website": null,
    "source": "openstreetmap",
    "osmId": 1866973965,
    "isPublic": true,
    "isValidated": true,
    "isFree": null,
    "pmrAccessible": false,
    "kidsFriendly": null,
    "createdAt": {
      "_seconds": 1771835670,
      "_nanoseconds": 0
    },
    "updatedAt": "2026-02-23T09:34:30.524341"
  },
  {
    "id": "osm_1867006727",
    "name": "Le Vox",
    "lat": 43.4335387,
    "lng": 6.7325796,
    "location": {
      "_latitude": 43.4335387,
      "_longitude": 6.7325796
    },
    "description": "Point d'intérêt: Le Vox",
    "category": "culture",
    "categoryGroup": "Culture",
    "categoryItem": "cinema",
    "city": "Fréjus",
    "departmentCode": "83",
    "imageUrls": [],
    "images": [],
    "websiteUrl": null,
    "website": null,
    "source": "openstreetmap",
    "osmId": 1867006727,
    "isPublic": true,
    "isValidated": true,
    "isFree": null,
    "pmrAccessible": false,
    "kidsFriendly": null,
    "createdAt": {
      "_seconds": 1771835670,
      "_nanoseconds": 0
    },
    "updatedAt": "2026-02-23T09:34:30.524353"
  },
  {
    "id": "osm_3085698903",
    "name": "POI sans nom",
    "lat": 43.4455243,
    "lng": 6.6376908,
    "location": {
      "_latitude": 43.4455243,
      "_longitude": 6.6376908
    },
    "description": "Point d'intérêt: POI sans nom",
    "category": "culture",
    "categoryGroup": "Culture",
    "categoryItem": "artwork",
    "city": "Fréjus",
    "departmentCode": "83",
    "imageUrls": [],
    "images": [],
    "websiteUrl": null,
    "website": null,
    "source": "openstreetmap",
    "osmId": 3085698903,
    "isPublic": true,
    "isValidated": true,
    "isFree": null,
    "pmrAccessible": false,
    "kidsFriendly": null,
    "createdAt": {
      "_seconds": 1771835670,
      "_nanoseconds": 0
    },
    "updatedAt": "2026-02-23T09:34:30.524356"
  },
  {
    "id": "osm_3085698904",
    "name": "POI sans nom",
    "lat": 43.4423552,
    "lng": 6.6371703,
    "location": {
      "_latitude": 43.4423552,
      "_longitude": 6.6371703
    },
    "description": "Point d'intérêt: POI sans nom",
    "category": "culture",
    "categoryGroup": "Culture",
    "categoryItem": "artwork",
    "city": "Fréjus",
    "departmentCode": "83",
    "imageUrls": [],
    "images": [],
    "websiteUrl": null,
    "website": null,
    "source": "openstreetmap",
    "osmId": 3085698904,
    "isPublic": true,
    "isValidated": true,
    "isFree": null,
    "pmrAccessible": false,
    "kidsFriendly": null,
    "createdAt": {
      "_seconds": 1771835670,
      "_nanoseconds": 0
    },
    "updatedAt": "2026-02-23T09:34:30.524359"
  },
  {
    "id": "osm_5153599254",
    "name": "Musée d'Histoire Locale de Fréjus",
    "lat": 43.4336631,
    "lng": 6.7359806,
    "location": {
      "_latitude": 43.4336631,
      "_longitude": 6.7359806
    },
    "description": "Point d'intérêt: Musée d'Histoire Locale de Fréjus",
    "category": "culture",
    "categoryGroup": "Culture",
    "categoryItem": "museum",
    "city": "Fréjus",
    "departmentCode": "83",
    "imageUrls": [],
    "images": [],
    "websiteUrl": null,
    "website": null,
    "source": "openstreetmap",
    "osmId": 5153599254,
    "isPublic": true,
    "isValidated": true,
    "isFree": null,
    "pmrAccessible": false,
    "kidsFriendly": null,
    "createdAt": {
      "_seconds": 1771835670,
      "_nanoseconds": 0
    },
    "updatedAt": "2026-02-23T09:34:30.524363"
  },
  {
    "id": "osm_5761778123",
    "name": "Bibi Comedia",
    "lat": 43.4253368,
    "lng": 6.7705802,
    "location": {
      "_latitude": 43.4253368,
      "_longitude": 6.7705802
    },
    "description": "Point d'intérêt: Bibi Comedia",
    "category": "culture",
    "categoryGroup": "Culture",
    "categoryItem": "theatre",
    "city": "Fréjus",
    "departmentCode": "83",
    "imageUrls": [],
    "images": [],
    "websiteUrl": null,
    "website": null,
    "source": "openstreetmap",
    "osmId": 5761778123,
    "isPublic": true,
    "isValidated": true,
    "isFree": null,
    "pmrAccessible": false,
    "kidsFriendly": null,
    "createdAt": {
      "_seconds": 1771835670,
      "_nanoseconds": 0
    },
    "updatedAt": "2026-02-23T09:34:30.524366"
  },
  {
    "id": "osm_5918624935",
    "name": "POI sans nom",
    "lat": 43.4927536,
    "lng": 6.7173819,
    "location": {
      "_latitude": 43.4927536,
      "_longitude": 6.7173819
    },
    "description": "Point d'intérêt: POI sans nom",
    "category": "culture",
    "categoryGroup": "Culture",
    "categoryItem": "theatre",
    "city": "Fréjus",
    "departmentCode": "83",
    "imageUrls": [],
    "images": [],
    "websiteUrl": null,
    "website": null,
    "source": "openstreetmap",
    "osmId": 5918624935,
    "isPublic": true,
    "isValidated": true,
    "isFree": null,
    "pmrAccessible": false,
    "kidsFriendly": null,
    "createdAt": {
      "_seconds": 1771835670,
      "_nanoseconds": 0
    },
    "updatedAt": "2026-02-23T09:34:30.524369"
  },
  {
    "id": "osm_6080272259",
    "name": "POI sans nom",
    "lat": 43.4717774,
    "lng": 6.7440498,
    "location": {
      "_latitude": 43.4717774,
      "_longitude": 6.7440498
    },
    "description": "Point d'intérêt: POI sans nom",
    "category": "culture",
    "categoryGroup": "Culture",
    "categoryItem": "artwork",
    "city": "Fréjus",
    "departmentCode": "83",
    "imageUrls": [],
    "images": [],
    "websiteUrl": null,
    "website": null,
    "source": "openstreetmap",
    "osmId": 6080272259,
    "isPublic": true,
    "isValidated": true,
    "isFree": null,
    "pmrAccessible": false,
    "kidsFriendly": null,
    "createdAt": {
      "_seconds": 1771835670,
      "_nanoseconds": 0
    },
    "updatedAt": "2026-02-23T09:34:30.524377"
  },
  {
    "id": "osm_6775162884",
    "name": "Théatre de Verdure",
    "lat": 43.4267444,
    "lng": 6.8526762,
    "location": {
      "_latitude": 43.4267444,
      "_longitude": 6.8526762
    },
    "description": "Point d'intérêt: Théatre de Verdure",
    "category": "culture",
    "categoryGroup": "Culture",
    "categoryItem": "theatre",
    "city": "Fréjus",
    "departmentCode": "83",
    "imageUrls": [],
    "images": [],
    "websiteUrl": null,
    "website": null,
    "source": "openstreetmap",
    "osmId": 6775162884,
    "isPublic": true,
    "isValidated": true,
    "isFree": null,
    "pmrAccessible": false,
    "kidsFriendly": null,
    "createdAt": {
      "_seconds": 1771835670,
      "_nanoseconds": 0
    },
    "updatedAt": "2026-02-23T09:34:30.524380"
  },
  {
    "id": "osm_7743234825",
    "name": "Atelier d'art Tramoni",
    "lat": 43.4329235,
    "lng": 6.7375116,
    "location": {
      "_latitude": 43.4329235,
      "_longitude": 6.7375116
    },
    "description": "Point d'intérêt: Atelier d'art Tramoni",
    "category": "culture",
    "categoryGroup": "Culture",
    "categoryItem": "gallery",
    "city": "Fréjus",
    "departmentCode": "83",
    "imageUrls": [],
    "images": [],
    "websiteUrl": null,
    "website": null,
    "source": "openstreetmap",
    "osmId": 7743234825,
    "isPublic": true,
    "isValidated": true,
    "isFree": null,
    "pmrAccessible": false,
    "kidsFriendly": null,
    "createdAt": {
      "_seconds": 1771835670,
      "_nanoseconds": 0
    },
    "updatedAt": "2026-02-23T09:34:30.524384"
  },
  {
    "id": "osm_8003940185",
    "name": "Musée Louis de Funès",
    "lat": 43.4230591,
    "lng": 6.7690477,
    "location": {
      "_latitude": 43.4230591,
      "_longitude": 6.7690477
    },
    "description": "Point d'intérêt: Musée Louis de Funès",
    "category": "culture",
    "categoryGroup": "Culture",
    "categoryItem": "museum",
    "city": "Fréjus",
    "departmentCode": "83",
    "imageUrls": [
      "https://www.wikidata.org/wiki/Q66095809"
    ],
    "images": [
      "https://www.wikidata.org/wiki/Q66095809"
    ],
    "websiteUrl": null,
    "website": null,
    "source": "openstreetmap",
    "osmId": 8003940185,
    "isPublic": true,
    "isValidated": true,
    "isFree": null,
    "pmrAccessible": false,
    "kidsFriendly": null,
    "createdAt": {
      "_seconds": 1771835670,
      "_nanoseconds": 0
    },
    "updatedAt": "2026-02-23T09:34:30.524389"
  },
  {
    "id": "osm_8219897343",
    "name": "L'Oubradou de la Fouant",
    "lat": 43.4432757,
    "lng": 6.6372572,
    "location": {
      "_latitude": 43.4432757,
      "_longitude": 6.6372572
    },
    "description": "Point d'intérêt: L'Oubradou de la Fouant",
    "category": "culture",
    "categoryGroup": "Culture",
    "categoryItem": "gallery",
    "city": "Fréjus",
    "departmentCode": "83",
    "imageUrls": [],
    "images": [],
    "websiteUrl": null,
    "website": null,
    "source": "openstreetmap",
    "osmId": 8219897343,
    "isPublic": true,
    "isValidated": true,
    "isFree": null,
    "pmrAccessible": false,
    "kidsFriendly": null,
    "createdAt": {
      "_seconds": 1771835670,
      "_nanoseconds": 0
    },
    "updatedAt": "2026-02-23T09:34:30.524392"
  },
  {
    "id": "osm_10034660588",
    "name": "Mini musée de plein air archéologique",
    "lat": 43.5307783,
    "lng": 6.6906333,
    "location": {
      "_latitude": 43.5307783,
      "_longitude": 6.6906333
    },
    "description": "Point d'intérêt: Mini musée de plein air archéologique",
    "category": "culture",
    "categoryGroup": "Culture",
    "categoryItem": "museum",
    "city": "Fréjus",
    "departmentCode": "83",
    "imageUrls": [],
    "images": [],
    "websiteUrl": null,
    "website": null,
    "source": "openstreetmap",
    "osmId": 10034660588,
    "isPublic": true,
    "isValidated": true,
    "isFree": null,
    "pmrAccessible": false,
    "kidsFriendly": null,
    "createdAt": {
      "_seconds": 1771835670,
      "_nanoseconds": 0
    },
    "updatedAt": "2026-02-23T09:34:30.524395"
  },
  {
    "id": "osm_11462297994",
    "name": "POI sans nom",
    "lat": 43.4234873,
    "lng": 6.7461745,
    "location": {
      "_latitude": 43.4234873,
      "_longitude": 6.7461745
    },
    "description": "under the bridge",
    "category": "culture",
    "categoryGroup": "Culture",
    "categoryItem": "artwork",
    "city": "Fréjus",
    "departmentCode": "83",
    "imageUrls": [],
    "images": [],
    "websiteUrl": null,
    "website": null,
    "source": "openstreetmap",
    "osmId": 11462297994,
    "isPublic": true,
    "isValidated": true,
    "isFree": null,
    "pmrAccessible": false,
    "kidsFriendly": null,
    "createdAt": {
      "_seconds": 1771835670,
      "_nanoseconds": 0
    },
    "updatedAt": "2026-02-23T09:34:30.524398"
  },
  {
    "id": "osm_11462297997",
    "name": "L’Archange Raphaël",
    "lat": 43.4220522,
    "lng": 6.7637031,
    "location": {
      "_latitude": 43.4220522,
      "_longitude": 6.7637031
    },
    "description": "Point d'intérêt: L’Archange Raphaël",
    "category": "culture",
    "categoryGroup": "Culture",
    "categoryItem": "artwork",
    "city": "Fréjus",
    "departmentCode": "83",
    "imageUrls": [],
    "images": [],
    "websiteUrl": null,
    "website": null,
    "source": "openstreetmap",
    "osmId": 11462297997,
    "isPublic": true,
    "isValidated": true,
    "isFree": null,
    "pmrAccessible": false,
    "kidsFriendly": null,
    "createdAt": {
      "_seconds": 1771835670,
      "_nanoseconds": 0
    },
    "updatedAt": "2026-02-23T09:34:30.524401"
  },
  {
    "id": "osm_11462478220",
    "name": "POI sans nom",
    "lat": 43.4624118,
    "lng": 6.7436851,
    "location": {
      "_latitude": 43.4624118,
      "_longitude": 6.7436851
    },
    "description": "Point d'intérêt: POI sans nom",
    "category": "culture",
    "categoryGroup": "Culture",
    "categoryItem": "artwork",
    "city": "Fréjus",
    "departmentCode": "83",
    "imageUrls": [],
    "images": [],
    "websiteUrl": null,
    "website": null,
    "source": "openstreetmap",
    "osmId": 11462478220,
    "isPublic": true,
    "isValidated": true,
    "isFree": null,
    "pmrAccessible": false,
    "kidsFriendly": null,
    "createdAt": {
      "_seconds": 1771835670,
      "_nanoseconds": 0
    },
    "updatedAt": "2026-02-23T09:34:30.524404"
  },
  {
    "id": "osm_11462478261",
    "name": "Sainte Brigitte",
    "lat": 43.4602699,
    "lng": 6.7435312,
    "location": {
      "_latitude": 43.4602699,
      "_longitude": 6.7435312
    },
    "description": "Point d'intérêt: Sainte Brigitte",
    "category": "culture",
    "categoryGroup": "Culture",
    "categoryItem": "artwork",
    "city": "Fréjus",
    "departmentCode": "83",
    "imageUrls": [],
    "images": [],
    "websiteUrl": null,
    "website": null,
    "source": "openstreetmap",
    "osmId": 11462478261,
    "isPublic": true,
    "isValidated": true,
    "isFree": null,
    "pmrAccessible": false,
    "kidsFriendly": null,
    "createdAt": {
      "_seconds": 1771835670,
      "_nanoseconds": 0
    },
    "updatedAt": "2026-02-23T09:34:30.524407"
  },
  {
    "id": "osm_11999370644",
    "name": "statue de l'abbé Sieyès",
    "lat": 43.4343635,
    "lng": 6.7371583,
    "location": {
      "_latitude": 43.4343635,
      "_longitude": 6.7371583
    },
    "description": "Point d'intérêt: statue de l'abbé Sieyès",
    "category": "culture",
    "categoryGroup": "Culture",
    "categoryItem": "artwork",
    "city": "Fréjus",
    "departmentCode": "83",
    "imageUrls": [],
    "images": [],
    "websiteUrl": null,
    "website": null,
    "source": "openstreetmap",
    "osmId": 11999370644,
    "isPublic": true,
    "isValidated": true,
    "isFree": null,
    "pmrAccessible": false,
    "kidsFriendly": null,
    "createdAt": {
      "_seconds": 1771835670,
      "_nanoseconds": 0
    },
    "updatedAt": "2026-02-23T09:34:30.524410"
  },
  {
    "id": "osm_12073089609",
    "name": "Le Lido",
    "lat": 43.4242686,
    "lng": 6.7691535,
    "location": {
      "_latitude": 43.4242686,
      "_longitude": 6.7691535
    },
    "description": "Point d'intérêt: Le Lido",
    "category": "culture",
    "categoryGroup": "Culture",
    "categoryItem": "cinema",
    "city": "Fréjus",
    "departmentCode": "83",
    "imageUrls": [],
    "images": [],
    "websiteUrl": "https://cinemalido-straphael.com/",
    "website": "https://cinemalido-straphael.com/",
    "source": "openstreetmap",
    "osmId": 12073089609,
    "isPublic": true,
    "isValidated": true,
    "isFree": null,
    "pmrAccessible": false,
    "kidsFriendly": null,
    "createdAt": {
      "_seconds": 1771835670,
      "_nanoseconds": 0
    },
    "updatedAt": "2026-02-23T09:34:30.524413"
  },
  {
    "id": "osm_12714322718",
    "name": "POI sans nom",
    "lat": 43.452078,
    "lng": 6.6932916,
    "location": {
      "_latitude": 43.452078,
      "_longitude": 6.6932916
    },
    "description": "Point d'intérêt: POI sans nom",
    "category": "culture",
    "categoryGroup": "Culture",
    "categoryItem": "artwork",
    "city": "Fréjus",
    "departmentCode": "83",
    "imageUrls": [],
    "images": [],
    "websiteUrl": null,
    "website": null,
    "source": "openstreetmap",
    "osmId": 12714322718,
    "isPublic": true,
    "isValidated": true,
    "isFree": null,
    "pmrAccessible": false,
    "kidsFriendly": null,
    "createdAt": {
      "_seconds": 1771835670,
      "_nanoseconds": 0
    },
    "updatedAt": "2026-02-23T09:34:30.524418"
  },
  {
    "id": "osm_13078543285",
    "name": "Atelier Williams",
    "lat": 43.4435308,
    "lng": 6.6373805,
    "location": {
      "_latitude": 43.4435308,
      "_longitude": 6.6373805
    },
    "description": "Point d'intérêt: Atelier Williams",
    "category": "culture",
    "categoryGroup": "Culture",
    "categoryItem": "gallery",
    "city": "Fréjus",
    "departmentCode": "83",
    "imageUrls": [],
    "images": [],
    "websiteUrl": "https://marianwilliams.artweb.com/",
    "website": "https://marianwilliams.artweb.com/",
    "source": "openstreetmap",
    "osmId": 13078543285,
    "isPublic": true,
    "isValidated": true,
    "isFree": null,
    "pmrAccessible": false,
    "kidsFriendly": null,
    "createdAt": {
      "_seconds": 1771835670,
      "_nanoseconds": 0
    },
    "updatedAt": "2026-02-23T09:34:30.524421"
  },
  {
    "id": "osm_13305061758",
    "name": "POI sans nom",
    "lat": 43.4176192,
    "lng": 6.845033,
    "location": {
      "_latitude": 43.4176192,
      "_longitude": 6.845033
    },
    "description": "Point d'intérêt: POI sans nom",
    "category": "culture",
    "categoryGroup": "Culture",
    "categoryItem": "artwork",
    "city": "Fréjus",
    "departmentCode": "83",
    "imageUrls": [],
    "images": [],
    "websiteUrl": null,
    "website": null,
    "source": "openstreetmap",
    "osmId": 13305061758,
    "isPublic": true,
    "isValidated": true,
    "isFree": null,
    "pmrAccessible": false,
    "kidsFriendly": null,
    "createdAt": {
      "_seconds": 1771835670,
      "_nanoseconds": 0
    },
    "updatedAt": "2026-02-23T09:34:30.524424"
  },
  {
    "id": "osm_13305096533",
    "name": "POI sans nom",
    "lat": 43.4176838,
    "lng": 6.8456951,
    "location": {
      "_latitude": 43.4176838,
      "_longitude": 6.8456951
    },
    "description": "Point d'intérêt: POI sans nom",
    "category": "culture",
    "categoryGroup": "Culture",
    "categoryItem": "artwork",
    "city": "Fréjus",
    "departmentCode": "83",
    "imageUrls": [],
    "images": [],
    "websiteUrl": null,
    "website": null,
    "source": "openstreetmap",
    "osmId": 13305096533,
    "isPublic": true,
    "isValidated": true,
    "isFree": null,
    "pmrAccessible": false,
    "kidsFriendly": null,
    "createdAt": {
      "_seconds": 1771835670,
      "_nanoseconds": 0
    },
    "updatedAt": "2026-02-23T09:34:30.524426"
  },
  {
    "id": "osm_13392699771",
    "name": "À distance",
    "lat": 43.4224969,
    "lng": 6.765422,
    "location": {
      "_latitude": 43.4224969,
      "_longitude": 6.765422
    },
    "description": "Point d'intérêt: À distance",
    "category": "culture",
    "categoryGroup": "Culture",
    "categoryItem": "artwork",
    "city": "Fréjus",
    "departmentCode": "83",
    "imageUrls": [],
    "images": [],
    "websiteUrl": null,
    "website": null,
    "source": "openstreetmap",
    "osmId": 13392699771,
    "isPublic": true,
    "isValidated": true,
    "isFree": null,
    "pmrAccessible": false,
    "kidsFriendly": null,
    "createdAt": {
      "_seconds": 1771835670,
      "_nanoseconds": 0
    },
    "updatedAt": "2026-02-23T09:34:30.524429"
  },
  {
    "id": "osm_1371311874",
    "name": "Cinéma Olbia",
    "lat": 43.1186565,
    "lng": 6.1278401,
    "location": {
      "_latitude": 43.1186565,
      "_longitude": 6.1278401
    },
    "description": "Point d'intérêt: Cinéma Olbia",
    "category": "culture",
    "categoryGroup": "Culture",
    "categoryItem": "cinema",
    "city": "Hyères",
    "departmentCode": "83",
    "imageUrls": [],
    "images": [],
    "websiteUrl": "https://www.cinemasolbia.com/",
    "website": "https://www.cinemasolbia.com/",
    "source": "openstreetmap",
    "osmId": 1371311874,
    "isPublic": true,
    "isValidated": true,
    "isFree": null,
    "pmrAccessible": false,
    "kidsFriendly": null,
    "createdAt": {
      "_seconds": 1771835672,
      "_nanoseconds": 0
    },