[
  {
    "id": "osm_914983679",
    "name": "A Cantali restaurant bio-végétarien",
    "lat": 41.925167,
    "lng": 8.737333,
    "location": {
      "_latitude": 41.925167,
      "_longitude": 8.737333
    },
    "description": "Point d'intérêt: A Cantali restaurant bio-végétarien",
    "category": "experienceGustative",
    "categoryGroup": "Experience gustative",
    "categoryItem": "restaurant",
    "city": "Corse-du-Sud",
    "departmentCode": "2A",
    "imageUrls": [],
    "images": [],
    "websiteUrl": null,
    "website": null,
    "source": "openstreetmap",
    "osmId": 914983679,
    "isPublic": true,
    "isValidated": true,
    "isFree": null,
    "pmrAccessible": false,
    "kidsFriendly": null,
    "createdAt": {
      "_seconds": 1772043590,
      "_nanoseconds": 0
    },
    "updatedAt": "2026-02-25T19:19:50.618008"
  },
  {
    "id": "osm_1438522393",
    "name": "La Belle Époque",
    "lat": 41.9199944,
    "lng": 8.7379901,
    "location": {
      "_latitude": 41.9199944,
      "_longitude": 8.7379901
    },
    "description": "Point d'intérêt: La Belle Époque",
    "category": "experienceGustative",
    "categoryGroup": "Experience gustative",
    "categoryItem": "restaurant",
    "city": "Corse-du-Sud",
    "departmentCode": "2A",
    "imageUrls": [],
    "images": [],
    "websiteUrl": null,
    "website": null,
    "source": "openstreetmap",
    "osmId": 1438522393,
    "isPublic": true,
    "isValidated": true,
    "isFree": null,
    "pmrAccessible": false,
    "kidsFriendly": null,
    "createdAt": {
      "_seconds": 1772043590,
      "_nanoseconds": 0
    },
    "updatedAt": "2026-02-25T19:19:50.618054"
  },
  {
    "id": "osm_1438522399",
    "name": "Le Sampiero",
    "lat": 41.9249375,
    "lng": 8.7387256,
    "location": {
      "_latitude": 41.9249375,
      "_longitude": 8.7387256
    },
    "description": "Point d'intérêt: Le Sampiero",
    "category": "experienceGustative",
    "categoryGroup": "Experience gustative",
    "categoryItem": "bakery",
    "city": "Corse-du-Sud",
    "departmentCode": "2A",
    "imageUrls": [],
    "images": [],
    "websiteUrl": null,
    "website": null,
    "source": "openstreetmap",
    "osmId": 1438522399,
    "isPublic": true,
    "isValidated": true,
    "isFree": null,
    "pmrAccessible": false,
    "kidsFriendly": null,
    "createdAt": {
      "_seconds": 1772043590,
      "_nanoseconds": 0
    },
    "updatedAt": "2026-02-25T19:19:50.618067"
  },
  {
    "id": "osm_1438536150",
    "name": "I Sanguinari",
    "lat": 41.8973628,
    "lng": 8.6112633,
    "location": {
      "_latitude": 41.8973628,
      "_longitude": 8.6112633
    },
    "description": "Point d'intérêt: I Sanguinari",
    "category": "experienceGustative",
    "categoryGroup": "Experience gustative",
    "categoryItem": "restaurant",
    "city": "Corse-du-Sud",
    "departmentCode": "2A",
    "imageUrls": [],
    "images": [],
    "websiteUrl": null,
    "website": null,
    "source": "openstreetmap",
    "osmId": 1438536150,
    "isPublic": true,
    "isValidated": true,
    "isFree": null,
    "pmrAccessible": false,
    "kidsFriendly": null,
    "createdAt": {
      "_seconds": 1772043590,
      "_nanoseconds": 0
    },
    "updatedAt": "2026-02-25T19:19:50.618079"
  },
  {
    "id": "osm_1794695729",
    "name": "Boulangerie Le Club",
    "lat": 41.8908606,
    "lng": 8.8036955,
    "location": {
      "_latitude": 41.8908606,
      "_longitude": 8.8036955
    },
    "description": "Point d'intérêt: Boulangerie Le Club",
    "category": "experienceGustative",
    "categoryGroup": "Experience gustative",
    "categoryItem": "bakery",
    "city": "Corse-du-Sud",
    "departmentCode": "2A",
    "imageUrls": [],
    "images": [],
    "websiteUrl": null,
    "website": null,
    "source": "openstreetmap",
    "osmId": 1794695729,
    "isPublic": true,
    "isValidated": true,
    "isFree": null,
    "pmrAccessible": false,
    "kidsFriendly": null,
    "createdAt": {
      "_seconds": 1772043590,
      "_nanoseconds": 0
    },
    "updatedAt": "2026-02-25T19:19:50.618091"
  },
  {
    "id": "osm_1794697037",
    "name": "Boulangerie Benista",
    "lat": 41.9072382,
    "lng": 8.823356,
    "location": {
      "_latitude": 41.9072382,
      "_longitude": 8.823356
    },
    "description": "Point d'intérêt: Boulangerie Benista",
    "category": "experienceGustative",
    "categoryGroup": "Experience gustative",
    "categoryItem": "bakery",
    "city": "Corse-du-Sud",
    "departmentCode": "2A",
    "imageUrls": [],
    "images": [],
    "websiteUrl": null,
    "website": null,
    "source": "openstreetmap",
    "osmId": 1794697037,
    "isPublic": true,
    "isValidated": true,
    "isFree": null,
    "pmrAccessible": false,
    "kidsFriendly": null,
    "createdAt": {
      "_seconds": 1772043590,
      "_nanoseconds": 0
    },
    "updatedAt": "2026-02-25T19:19:50.618102"
  },
  {
    "id": "osm_1888132174",
    "name": "Bar a vin 1755",
    "lat": 41.9175869,
    "lng": 8.7387684,
    "location": {
      "_latitude": 41.9175869,
      "_longitude": 8.7387684
    },
    "description": "Point d'intérêt: Bar a vin 1755",
    "category": "experienceGustative",
    "categoryGroup": "Experience gustative",
    "categoryItem": "restaurant",
    "city": "Corse-du-Sud",
    "departmentCode": "2A",
    "imageUrls": [],
    "images": [],
    "websiteUrl": null,
    "website": null,
    "source": "openstreetmap",
    "osmId": 1888132174,
    "isPublic": true,
    "isValidated": true,
    "isFree": null,
    "pmrAccessible": false,
    "kidsFriendly": null,
    "createdAt": {
      "_seconds": 1772043590,
      "_nanoseconds": 0
    },
    "updatedAt": "2026-02-25T19:19:50.618114"
  },
  {
    "id": "osm_1888132204",
    "name": "POI sans nom",
    "lat": 41.9176996,
    "lng": 8.7384634,
    "location": {
      "_latitude": 41.9176996,
      "_longitude": 8.7384634
    },
    "description": "Point d'intérêt: POI sans nom",
    "category": "experienceGustative",
    "categoryGroup": "Experience gustative",
    "categoryItem": "bakery",
    "city": "Corse-du-Sud",
    "departmentCode": "2A",
    "imageUrls": [],
    "images": [],
    "websiteUrl": null,
    "website": null,
    "source": "openstreetmap",
    "osmId": 1888132204,
    "isPublic": true,
    "isValidated": true,
    "isFree": null,
    "pmrAccessible": false,
    "kidsFriendly": null,
    "createdAt": {
      "_seconds": 1772043590,
      "_nanoseconds": 0
    },
    "updatedAt": "2026-02-25T19:19:50.618125"
  },
  {
    "id": "osm_1888137082",
    "name": "Jeunesse bar",
    "lat": 41.9178972,
    "lng": 8.7390179,
    "location": {
      "_latitude": 41.9178972,
      "_longitude": 8.7390179
    },
    "description": "Point d'intérêt: Jeunesse bar",
    "category": "experienceGustative",
    "categoryGroup": "Experience gustative",
    "categoryItem": "cafe",
    "city": "Corse-du-Sud",
    "departmentCode": "2A",
    "imageUrls": [],
    "images": [],
    "websiteUrl": null,
    "website": null,
    "source": "openstreetmap",
    "osmId": 1888137082,
    "isPublic": true,
    "isValidated": true,
    "isFree": null,
    "pmrAccessible": false,
    "kidsFriendly": null,
    "createdAt": {
      "_seconds": 1772043590,
      "_nanoseconds": 0
    },
    "updatedAt": "2026-02-25T19:19:50.618135"
  },
  {
    "id": "osm_1888144047",
    "name": "POI sans nom",
    "lat": 41.9180394,
    "lng": 8.7395556,
    "location": {
      "_latitude": 41.9180394,
      "_longitude": 8.7395556
    },
    "description": "Point d'intérêt: POI sans nom",
    "category": "experienceGustative",
    "categoryGroup": "Experience gustative",
    "categoryItem": "restaurant",
    "city": "Corse-du-Sud",
    "departmentCode": "2A",
    "imageUrls": [],
    "images": [],
    "websiteUrl": null,
    "website": null,
    "source": "openstreetmap",
    "osmId": 1888144047,
    "isPublic": true,
    "isValidated": true,
    "isFree": null,
    "pmrAccessible": false,
    "kidsFriendly": null,
    "createdAt": {
      "_seconds": 1772043590,
      "_nanoseconds": 0
    },
    "updatedAt": "2026-02-25T19:19:50.618146"
  },
  {
    "id": "osm_1888144049",
    "name": "A Madunaccia",
    "lat": 41.9180065,
    "lng": 8.7394584,
    "location": {
      "_latitude": 41.9180065,
      "_longitude": 8.7394584
    },
    "description": "Point d'intérêt: A Madunaccia",
    "category": "experienceGustative",
    "categoryGroup": "Experience gustative",
    "categoryItem": "restaurant",
    "city": "Corse-du-Sud",
    "departmentCode": "2A",
    "imageUrls": [],
    "images": [],
    "websiteUrl": null,
    "website": null,
    "source": "openstreetmap",
    "osmId": 1888144049,
    "isPublic": true,
    "isValidated": true,
    "isFree": null,
    "pmrAccessible": false,
    "kidsFriendly": null,
    "createdAt": {
      "_seconds": 1772043590,
      "_nanoseconds": 0
    },
    "updatedAt": "2026-02-25T19:19:50.618157"
  },
  {
    "id": "osm_1888151911",
    "name": "La Pizza",
    "lat": 41.9182245,
    "lng": 8.7396797,
    "location": {
      "_latitude": 41.9182245,
      "_longitude": 8.7396797
    },
    "description": "Point d'intérêt: La Pizza",
    "category": "experienceGustative",
    "categoryGroup": "Experience gustative",
    "categoryItem": "restaurant",
    "city": "Corse-du-Sud",
    "departmentCode": "2A",
    "imageUrls": [],
    "images": [],
    "websiteUrl": null,
    "website": null,
    "source": "openstreetmap",
    "osmId": 1888151911,
    "isPublic": true,
    "isValidated": true,
    "isFree": null,
    "pmrAccessible": false,
    "kidsFriendly": null,
    "createdAt": {
      "_seconds": 1772043590,
      "_nanoseconds": 0
    },
    "updatedAt": "2026-02-25T19:19:50.618168"
  },
  {
    "id": "osm_1888151916",
    "name": "POI sans nom",
    "lat": 41.9181427,
    "lng": 8.7397797,
    "location": {
      "_latitude": 41.9181427,
      "_longitude": 8.7397797
    },
    "description": "Point d'intérêt: POI sans nom",
    "category": "experienceGustative",
    "categoryGroup": "Experience gustative",
    "categoryItem": "restaurant",
    "city": "Corse-du-Sud",
    "departmentCode": "2A",
    "imageUrls": [],
    "images": [],
    "websiteUrl": null,
    "website": null,
    "source": "openstreetmap",
    "osmId": 1888151916,
    "isPublic": true,
    "isValidated": true,
    "isFree": null,
    "pmrAccessible": false,
    "kidsFriendly": null,
    "createdAt": {
      "_seconds": 1772043590,
      "_nanoseconds": 0
    },
    "updatedAt": "2026-02-25T19:19:50.618183"
  },
  {
    "id": "osm_1888151920",
    "name": "A Vista",
    "lat": 41.9183019,
    "lng": 8.7397294,
    "location": {
      "_latitude": 41.9183019,
      "_longitude": 8.7397294
    },
    "description": "Point d'intérêt: A Vista",
    "category": "experienceGustative",
    "categoryGroup": "Experience gustative",
    "categoryItem": "restaurant",
    "city": "Corse-du-Sud",
    "departmentCode": "2A",
    "imageUrls": [],
    "images": [],
    "websiteUrl": null,
    "website": null,
    "source": "openstreetmap",
    "osmId": 1888151920,
    "isPublic": true,
    "isValidated": true,
    "isFree": null,
    "pmrAccessible": false,
    "kidsFriendly": null,
    "createdAt": {
      "_seconds": 1772043590,
      "_nanoseconds": 0
    },
    "updatedAt": "2026-02-25T19:19:50.618198"
  },
  {
    "id": "osm_1888162750",
    "name": "A Calata",
    "lat": 41.9179157,
    "lng": 8.7398587,
    "location": {
      "_latitude": 41.9179157,
      "_longitude": 8.7398587
    },
    "description": "Point d'intérêt: A Calata",
    "category": "experienceGustative",
    "categoryGroup": "Experience gustative",
    "categoryItem": "restaurant",
    "city": "Corse-du-Sud",
    "departmentCode": "2A",
    "imageUrls": [],
    "images": [],
    "websiteUrl": "https://www.tripadvisor.fr/Restaurant_Review-g187140-d1328480-Reviews-A_Calata-Ajaccio_Communaute_d_Agglomeration_du_Pays_Ajaccien_Corse_du_Sud_Corsica.html",
    "website": "https://www.tripadvisor.fr/Restaurant_Review-g187140-d1328480-Reviews-A_Calata-Ajaccio_Communaute_d_Agglomeration_du_Pays_Ajaccien_Corse_du_Sud_Corsica.html",
    "source": "openstreetmap",
    "osmId": 1888162750,
    "isPublic": true,
    "isValidated": true,
    "isFree": null,
    "pmrAccessible": false,
    "kidsFriendly": null,
    "createdAt": {
      "_seconds": 1772043590,
      "_nanoseconds": 0
    },
    "updatedAt": "2026-02-25T19:19:50.618219"
  },
  {
    "id": "osm_1888162756",
    "name": "Le glacier du port",
    "lat": 41.9180075,
    "lng": 8.7398158,
    "location": {
      "_latitude": 41.9180075,
      "_longitude": 8.7398158
    },
    "description": "Point d'intérêt: Le glacier du port",
    "category": "experienceGustative",
    "categoryGroup": "Experience gustative",
    "categoryItem": "restaurant",
    "city": "Corse-du-Sud",
    "departmentCode": "2A",
    "imageUrls": [],
    "images": [],
    "websiteUrl": null,
    "website": null,
    "source": "openstreetmap",
    "osmId": 1888162756,
    "isPublic": true,
    "isValidated": true,
    "isFree": null,
    "pmrAccessible": false,
    "kidsFriendly": null,
    "createdAt": {
      "_seconds": 1772043590,
      "_nanoseconds": 0
    },
    "updatedAt": "2026-02-25T19:19:50.618232"
  },
  {
    "id": "osm_1904664318",
    "name": "Le Rivoli",
    "lat": 41.8687942,
    "lng": 8.7876626,
    "location": {
      "_latitude": 41.8687942,
      "_longitude": 8.7876626
    },
    "description": "Point d'intérêt: Le Rivoli",
    "category": "experienceGustative",
    "categoryGroup": "Experience gustative",
    "categoryItem": "restaurant",
    "city": "Corse-du-Sud",
    "departmentCode": "2A",
    "imageUrls": [],
    "images": [],
    "websiteUrl": null,
    "website": null,
    "source": "openstreetmap",
    "osmId": 1904664318,
    "isPublic": true,
    "isValidated": true,
    "isFree": null,
    "pmrAccessible": false,
    "kidsFriendly": null,
    "createdAt": {
      "_seconds": 1772043590,
      "_nanoseconds": 0
    },
    "updatedAt": "2026-02-25T19:19:50.618243"
  },
  {
    "id": "osm_1904824494",
    "name": "Casetta Novelli",
    "lat": 41.8757248,
    "lng": 8.7851228,
    "location": {
      "_latitude": 41.8757248,
      "_longitude": 8.7851228
    },
    "description": "Point d'intérêt: Casetta Novelli",
    "category": "experienceGustative",
    "categoryGroup": "Experience gustative",
    "categoryItem": "restaurant",
    "city": "Corse-du-Sud",
    "departmentCode": "2A",
    "imageUrls": [],
    "images": [],
    "websiteUrl": null,
    "website": null,
    "source": "openstreetmap",
    "osmId": 1904824494,
    "isPublic": true,
    "isValidated": true,
    "isFree": null,
    "pmrAccessible": false,
    "kidsFriendly": null,
    "createdAt": {
      "_seconds": 1772043590,
      "_nanoseconds": 0
    },
    "updatedAt": "2026-02-25T19:19:50.618255"
  },
  {
    "id": "osm_1910175223",
    "name": "Auberge du Prunelli",
    "lat": 41.9127234,
    "lng": 8.8361585,
    "location": {
      "_latitude": 41.9127234,
      "_longitude": 8.8361585
    },
    "description": "Point d'intérêt: Auberge du Prunelli",
    "category": "experienceGustative",
    "categoryGroup": "Experience gustative",
    "categoryItem": "restaurant",
    "city": "Corse-du-Sud",
    "departmentCode": "2A",
    "imageUrls": [],
    "images": [],
    "websiteUrl": null,
    "website": null,
    "source": "openstreetmap",
    "osmId": 1910175223,
    "isPublic": true,
    "isValidated": true,
    "isFree": null,
    "pmrAccessible": false,
    "kidsFriendly": null,
    "createdAt": {
      "_seconds": 1772043590,
      "_nanoseconds": 0
    },
    "updatedAt": "2026-02-25T19:19:50.618272"
  },
  {
    "id": "osm_1910175238",
    "name": "Restaurant Le Bon Coin",
    "lat": 41.9133021,
    "lng": 8.8355451,
    "location": {
      "_latitude": 41.9133021,
      "_longitude": 8.8355451
    },
    "description": "Point d'intérêt: Restaurant Le Bon Coin",
    "category": "experienceGustative",
    "categoryGroup": "Experience gustative",
    "categoryItem": "restaurant",
    "city": "Corse-du-Sud",
    "departmentCode": "2A",
    "imageUrls": [],
    "images": [],
    "websiteUrl": null,
    "website": null,
    "source": "openstreetmap",
    "osmId": 1910175238,
    "isPublic": true,
    "isValidated": true,
    "isFree": null,
    "pmrAccessible": false,
    "kidsFriendly": null,
    "createdAt": {
      "_seconds": 1772043590,
      "_nanoseconds": 0
    },
    "updatedAt": "2026-02-25T19:19:50.618284"
  },
  {
    "id": "osm_1915760771",
    "name": "Le Panoramique",
    "lat": 41.8846013,
    "lng": 8.8084781,
    "location": {
      "_latitude": 41.8846013,
      "_longitude": 8.8084781
    },
    "description": "Point d'intérêt: Le Panoramique",
    "category": "experienceGustative",
    "categoryGroup": "Experience gustative",
    "categoryItem": "restaurant",
    "city": "Corse-du-Sud",
    "departmentCode": "2A",
    "imageUrls": [],
    "images": [],
    "websiteUrl": null,
    "website": null,
    "source": "openstreetmap",
    "osmId": 1915760771,
    "isPublic": true,
    "isValidated": true,
    "isFree": null,
    "pmrAccessible": false,
    "kidsFriendly": null,
    "createdAt": {
      "_seconds": 1772043590,
      "_nanoseconds": 0
    },
    "updatedAt": "2026-02-25T19:19:50.618294"
  },
  {
    "id": "osm_2317369211",
    "name": "A Conca d'Oru",
    "lat": 41.9189127,
    "lng": 8.7365784,
    "location": {
      "_latitude": 41.9189127,
      "_longitude": 8.7365784
    },
    "description": "Point d'intérêt: A Conca d'Oru",
    "category": "experienceGustative",
    "categoryGroup": "Experience gustative",
    "categoryItem": "cafe",
    "city": "Corse-du-Sud",
    "departmentCode": "2A",
    "imageUrls": [],
    "images": [],
    "websiteUrl": null,
    "website": null,
    "source": "openstreetmap",
    "osmId": 2317369211,
    "isPublic": true,
    "isValidated": true,
    "isFree": null,
    "pmrAccessible": false,
    "kidsFriendly": null,
    "createdAt": {
      "_seconds": 1772043590,
      "_nanoseconds": 0
    },
    "updatedAt": "2026-02-25T19:19:50.618305"
  },
  {
    "id": "osm_2317445154",
    "name": "Bella Storia",
    "lat": 41.9126726,
    "lng": 8.7253891,
    "location": {
      "_latitude": 41.9126726,
      "_longitude": 8.7253891
    },
    "description": "Point d'intérêt: Bella Storia",
    "category": "experienceGustative",
    "categoryGroup": "Experience gustative",
    "categoryItem": "restaurant",
    "city": "Corse-du-Sud",
    "departmentCode": "2A",
    "imageUrls": [],
    "images": [],
    "websiteUrl": null,
    "website": null,
    "source": "openstreetmap",
    "osmId": 2317445154,
    "isPublic": true,
    "isValidated": true,
    "isFree": null,
    "pmrAccessible": false,
    "kidsFriendly": null,
    "createdAt": {
      "_seconds": 1772043590,
      "_nanoseconds": 0
    },
    "updatedAt": "2026-02-25T19:19:50.618316"
  },
  {
    "id": "osm_2317445169",
    "name": "Le Mandarin",
    "lat": 41.930007,
    "lng": 8.7375293,
    "location": {
      "_latitude": 41.930007,
      "_longitude": 8.7375293
    },
    "description": "Point d'intérêt: Le Mandarin",
    "category": "experienceGustative",
    "categoryGroup": "Experience gustative",
    "categoryItem": "restaurant",
    "city": "Corse-du-Sud",
    "departmentCode": "2A",
    "imageUrls": [],
    "images": [],
    "websiteUrl": null,
    "website": null,
    "source": "openstreetmap",
    "osmId": 2317445169,
    "isPublic": true,
    "isValidated": true,
    "isFree": null,
    "pmrAccessible": false,
    "kidsFriendly": null,
    "createdAt": {
      "_seconds": 1772043590,
      "_nanoseconds": 0
    },
    "updatedAt": "2026-02-25T19:19:50.618327"
  },
  {
    "id": "osm_2330127488",
    "name": "Le Parc",
    "lat": 41.91121,
    "lng": 8.7218437,
    "location": {
      "_latitude": 41.91121,
      "_longitude": 8.7218437
    },
    "description": "Point d'intérêt: Le Parc",
    "category": "experienceGustative",
    "categoryGroup": "Experience gustative",
    "categoryItem": "restaurant",
    "city": "Corse-du-Sud",
    "departmentCode": "2A",
    "imageUrls": [],
    "images": [],
    "websiteUrl": null,
    "website": null,
    "source": "openstreetmap",
    "osmId": 2330127488,
    "isPublic": true,
    "isValidated": true,
    "isFree": null,
    "pmrAccessible": false,
    "kidsFriendly": null,
    "createdAt": {
      "_seconds": 1772043590,
      "_nanoseconds": 0
    },
    "updatedAt": "2026-02-25T19:19:50.618338"
  },
  {
    "id": "osm_2330127530",
    "name": "Boulangerie du parc",
    "lat": 41.911707,
    "lng": 8.7221494,
    "location": {
      "_latitude": 41.911707,
      "_longitude": 8.7221494
    },
    "description": "Point d'intérêt: Boulangerie du parc",
    "category": "experienceGustative",
    "categoryGroup": "Experience gustative",
    "categoryItem": "bakery",
    "city": "Corse-du-Sud",
    "departmentCode": "2A",
    "imageUrls": [],
    "images": [],
    "websiteUrl": null,
    "website": null,
    "source": "openstreetmap",
    "osmId": 2330127530,
    "isPublic": true,
    "isValidated": true,
    "isFree": null,
    "pmrAccessible": false,
    "kidsFriendly": null,
    "createdAt": {
      "_seconds": 1772043590,
      "_nanoseconds": 0
    },
    "updatedAt": "2026-02-25T19:19:50.618351"
  },
  {
    "id": "osm_2331007916",
    "name": "Kallyste",
    "lat": 41.9283141,
    "lng": 8.7380282,
    "location": {
      "_latitude": 41.9283141,
      "_longitude": 8.7380282
    },
    "description": "Point d'intérêt: Kallyste",
    "category": "experienceGustative",
    "categoryGroup": "Experience gustative",
    "categoryItem": "bakery",
    "city": "Corse-du-Sud",
    "departmentCode": "2A",
    "imageUrls": [],
    "images": [],
    "websiteUrl": null,
    "website": null,
    "source": "openstreetmap",
    "osmId": 2331007916,
    "isPublic": true,
    "isValidated": true,
    "isFree": null,
    "pmrAccessible": false,
    "kidsFriendly": null,
    "createdAt": {
      "_seconds": 1772043590,
      "_nanoseconds": 0
    },
    "updatedAt": "2026-02-25T19:19:50.618371"
  },
  {
    "id": "osm_2332139100",
    "name": "POI sans nom",
    "lat": 41.93533,
    "lng": 8.7456539,
    "location": {
      "_latitude": 41.93533,
      "_longitude": 8.7456539
    },
    "description": "Point d'intérêt: POI sans nom",
    "category": "experienceGustative",
    "categoryGroup": "Experience gustative",
    "categoryItem": "bakery",
    "city": "Corse-du-Sud",
    "departmentCode": "2A",
    "imageUrls": [],
    "images": [],
    "websiteUrl": null,
    "website": null,
    "source": "openstreetmap",
    "osmId": 2332139100,
    "isPublic": true,
    "isValidated": true,
    "isFree": null,
    "pmrAccessible": false,
    "kidsFriendly": null,
    "createdAt": {
      "_seconds": 1772043590,
      "_nanoseconds": 0
    },
    "updatedAt": "2026-02-25T19:19:50.618384"
  },
  {
    "id": "osm_2332139107",
    "name": "Courtepaille",
    "lat": 41.9328534,
    "lng": 8.7576281,
    "location": {
      "_latitude": 41.9328534,
      "_longitude": 8.7576281
    },
    "description": "Point d'intérêt: Courtepaille",
    "category": "experienceGustative",
    "categoryGroup": "Experience gustative",
    "categoryItem": "restaurant",
    "city": "Corse-du-Sud",
    "departmentCode": "2A",
    "imageUrls": [],
    "images": [],
    "websiteUrl": null,
    "website": null,
    "source": "openstreetmap",
    "osmId": 2332139107,
    "isPublic": true,
    "isValidated": true,
    "isFree": null,
    "pmrAccessible": false,
    "kidsFriendly": null,
    "createdAt": {
      "_seconds": 1772043590,
      "_nanoseconds": 0
    },
    "updatedAt": "2026-02-25T19:19:50.618396"
  },
  {
    "id": "osm_2427012327",
    "name": "À l'Heure de la Chandeleur",
    "lat": 41.9322676,
    "lng": 8.7403125,
    "location": {
      "_latitude": 41.9322676,
      "_longitude": 8.7403125
    },
    "description": "Point d'intérêt: À l'Heure de la Chandeleur",
    "category": "experienceGustative",
    "categoryGroup": "Experience gustative",
    "categoryItem": "restaurant",
    "city": "Corse-du-Sud",
    "departmentCode": "2A",
    "imageUrls": [],
    "images": [],
    "websiteUrl": null,
    "website": null,
    "source": "openstreetmap",
    "osmId": 2427012327,
    "isPublic": true,
    "isValidated": true,
    "isFree": null,
    "pmrAccessible": false,
    "kidsFriendly": null,
    "createdAt": {
      "_seconds": 1772043590,
      "_nanoseconds": 0
    },
    "updatedAt": "2026-02-25T19:19:50.618407"
  },
  {
    "id": "osm_2427012336",
    "name": "Le Coin du Ring",
    "lat": 41.9346096,
    "lng": 8.7496452,
    "location": {
      "_latitude": 41.9346096,
      "_longitude": 8.7496452
    },
    "description": "Point d'intérêt: Le Coin du Ring",
    "category": "experienceGustative",
    "categoryGroup": "Experience gustative",
    "categoryItem": "restaurant",
    "city": "Corse-du-Sud",
    "departmentCode": "2A",
    "imageUrls": [],
    "images": [],
    "websiteUrl": null,
    "website": null,
    "source": "openstreetmap",
    "osmId": 2427012336,
    "isPublic": true,
    "isValidated": true,
    "isFree": null,
    "pmrAccessible": false,
    "kidsFriendly": null,
    "createdAt": {
      "_seconds": 1772043590,
      "_nanoseconds": 0
    },
    "updatedAt": "2026-02-25T19:19:50.618417"
  },
  {
    "id": "osm_2427019039",
    "name": "Chez Alain",
    "lat": 41.8660542,
    "lng": 8.7917065,
    "location": {
      "_latitude": 41.8660542,
      "_longitude": 8.7917065
    },
    "description": "Point d'intérêt: Chez Alain",
    "category": "experienceGustative",
    "categoryGroup": "Experience gustative",
    "categoryItem": "restaurant",
    "city": "Corse-du-Sud",
    "departmentCode": "2A",
    "imageUrls": [],
    "images": [],
    "websiteUrl": null,
    "website": null,
    "source": "openstreetmap",
    "osmId": 2427019039,
    "isPublic": true,
    "isValidated": true,
    "isFree": null,
    "pmrAccessible": false,
    "kidsFriendly": null,
    "createdAt": {
      "_seconds": 1772043590,
      "_nanoseconds": 0
    },
    "updatedAt": "2026-02-25T19:19:50.618429"
  },
  {
    "id": "osm_2460419881",
    "name": "Le 20123",
    "lat": 41.9180262,
    "lng": 8.7373431,
    "location": {
      "_latitude": 41.9180262,
      "_longitude": 8.7373431
    },
    "description": "Point d'intérêt: Le 20123",
    "category": "experienceGustative",
    "categoryGroup": "Experience gustative",
    "categoryItem": "restaurant",
    "city": "Corse-du-Sud",
    "departmentCode": "2A",
    "imageUrls": [],
    "images": [],
    "websiteUrl": "https://www.20123.fr/",
    "website": "https://www.20123.fr/",
    "source": "openstreetmap",
    "osmId": 2460419881,
    "isPublic": true,
    "isValidated": true,
    "isFree": null,
    "pmrAccessible": false,
    "kidsFriendly": null,
    "createdAt": {
      "_seconds": 1772043590,
      "_nanoseconds": 0
    },
    "updatedAt": "2026-02-25T19:19:50.618480"
  },
  {
    "id": "osm_2529072330",
    "name": "Kallibouffe",
    "lat": 41.9283,
    "lng": 8.7381481,
    "location": {
      "_latitude": 41.9283,
      "_longitude": 8.7381481
    },
    "description": "Point d'intérêt: Kallibouffe",
    "category": "experienceGustative",
    "categoryGroup": "Experience gustative",
    "categoryItem": "restaurant",
    "city": "Corse-du-Sud",
    "departmentCode": "2A",
    "imageUrls": [],
    "images": [],
    "websiteUrl": null,
    "website": null,
    "source": "openstreetmap",
    "osmId": 2529072330,
    "isPublic": true,
    "isValidated": true,
    "isFree": null,
    "pmrAccessible": false,
    "kidsFriendly": null,
    "createdAt": {
      "_seconds": 1772043590,
      "_nanoseconds": 0
    },
    "updatedAt": "2026-02-25T19:19:50.618532"
  },
  {
    "id": "osm_2689726278",
    "name": "A Nepita",
    "lat": 41.9253524,
    "lng": 8.73739,
    "location": {
      "_latitude": 41.9253524,
      "_longitude": 8.73739
    },
    "description": "Point d'intérêt: A Nepita",
    "category": "experienceGustative",
    "categoryGroup": "Experience gustative",
    "categoryItem": "restaurant",
    "city": "Corse-du-Sud",
    "departmentCode": "2A",
    "imageUrls": [],
    "images": [],
    "websiteUrl": "https://www.anepita.fr",
    "website": "https://www.anepita.fr",
    "source": "openstreetmap",
    "osmId": 2689726278,
    "isPublic": true,
    "isValidated": true,
    "isFree": null,
    "pmrAccessible": false,
    "kidsFriendly": null,
    "createdAt": {
      "_seconds": 1772043590,
      "_nanoseconds": 0
    },
    "updatedAt": "2026-02-25T19:19:50.618547"
  },
  {
    "id": "osm_2899144583",
    "name": "Café Zézé",
    "lat": 41.917488,
    "lng": 8.7375024,
    "location": {
      "_latitude": 41.917488,
      "_longitude": 8.7375024
    },
    "description": "Point d'intérêt: Café Zézé",
    "category": "experienceGustative",
    "categoryGroup": "Experience gustative",
    "categoryItem": "cafe",
    "city": "Corse-du-Sud",
    "departmentCode": "2A",
    "imageUrls": [],
    "images": [],
    "websiteUrl": null,
    "website": null,
    "source": "openstreetmap",
    "osmId": 2899144583,
    "isPublic": true,
    "isValidated": true,
    "isFree": null,
    "pmrAccessible": false,
    "kidsFriendly": null,
    "createdAt": {
      "_seconds": 1772043590,
      "_nanoseconds": 0
    },
    "updatedAt": "2026-02-25T19:19:50.618560"
  },
  {
    "id": "osm_2899144585",
    "name": "Grand Café Napoléon",
    "lat": 41.9198188,
    "lng": 8.7371277,
    "location": {
      "_latitude": 41.9198188,
      "_longitude": 8.7371277
    },
    "description": "Point d'intérêt: Grand Café Napoléon",
    "category": "experienceGustative",
    "categoryGroup": "Experience gustative",
    "categoryItem": "cafe",
    "city": "Corse-du-Sud",
    "departmentCode": "2A",
    "imageUrls": [],
    "images": [],
    "websiteUrl": null,
    "website": null,
    "source": "openstreetmap",
    "osmId": 2899144585,
    "isPublic": true,
    "isValidated": true,
    "isFree": null,
    "pmrAccessible": false,
    "kidsFriendly": null,
    "createdAt": {
      "_seconds": 1772043590,
      "_nanoseconds": 0
    },
    "updatedAt": "2026-02-25T19:19:50.618572"
  },
  {
    "id": "osm_2899144589",
    "name": "Le Royal",
    "lat": 41.9200052,
    "lng": 8.7371656,
    "location": {
      "_latitude": 41.9200052,
      "_longitude": 8.7371656
    },
    "description": "Point d'intérêt: Le Royal",
    "category": "experienceGustative",
    "categoryGroup": "Experience gustative",
    "categoryItem": "cafe",
    "city": "Corse-du-Sud",
    "departmentCode": "2A",
    "imageUrls": [],
    "images": [],
    "websiteUrl": null,
    "website": null,
    "source": "openstreetmap",
    "osmId": 2899144589,
    "isPublic": true,
    "isValidated": true,
    "isFree": null,
    "pmrAccessible": false,
    "kidsFriendly": null,
    "createdAt": {
      "_seconds": 1772043590,
      "_nanoseconds": 0
    },
    "updatedAt": "2026-02-25T19:19:50.618583"
  },
  {
    "id": "osm_2899145612",
    "name": "Maison Davoli",
    "lat": 41.9191602,
    "lng": 8.7372508,
    "location": {
      "_latitude": 41.9191602,
      "_longitude": 8.7372508
    },
    "description": "Point d'intérêt: Maison Davoli",
    "category": "experienceGustative",
    "categoryGroup": "Experience gustative",
    "categoryItem": "bakery",
    "city": "Corse-du-Sud",
    "departmentCode": "2A",
    "imageUrls": [],
    "images": [],
    "websiteUrl": null,
    "website": null,
    "source": "openstreetmap",
    "osmId": 2899145612,
    "isPublic": true,
    "isValidated": true,
    "isFree": null,
    "pmrAccessible": false,
    "kidsFriendly": null,
    "createdAt": {
      "_seconds": 1772043590,
      "_nanoseconds": 0
    },
    "updatedAt": "2026-02-25T19:19:50.618607"
  },
  {
    "id": "osm_2899145632",
    "name": "POI sans nom",
    "lat": 41.9244377,
    "lng": 8.7377689,
    "location": {
      "_latitude": 41.9244377,
      "_longitude": 8.7377689
    },
    "description": "Point d'intérêt: POI sans nom",
    "category": "experienceGustative",
    "categoryGroup": "Experience gustative",
    "categoryItem": "bakery",
    "city": "Corse-du-Sud",
    "departmentCode": "2A",
    "imageUrls": [],
    "images": [],
    "websiteUrl": null,
    "website": null,
    "source": "openstreetmap",
    "osmId": 2899145632,
    "isPublic": true,
    "isValidated": true,
    "isFree": null,
    "pmrAccessible": false,
    "kidsFriendly": null,
    "createdAt": {
      "_seconds": 1772043590,
      "_nanoseconds": 0
    },
    "updatedAt": "2026-02-25T19:19:50.618619"
  },
  {
    "id": "osm_2899424001",
    "name": "Da Mama",
    "lat": 41.9206127,
    "lng": 8.7375191,
    "location": {
      "_latitude": 41.9206127,
      "_longitude": 8.7375191
    },
    "description": "Point d'intérêt: Da Mama",
    "category": "experienceGustative",
    "categoryGroup": "Experience gustative",
    "categoryItem": "restaurant",
    "city": "Corse-du-Sud",
    "departmentCode": "2A",
    "imageUrls": [],
    "images": [],
    "websiteUrl": null,
    "website": null,
    "source": "openstreetmap",
    "osmId": 2899424001,
    "isPublic": true,
    "isValidated": true,
    "isFree": null,
    "pmrAccessible": false,
    "kidsFriendly": null,
    "createdAt": {
      "_seconds": 1772043590,
      "_nanoseconds": 0
    },
    "updatedAt": "2026-02-25T19:19:50.618630"
  },
  {
    "id": "osm_2901412331",
    "name": "Casa Corsa",
    "lat": 41.9232327,
    "lng": 8.7390531,
    "location": {
      "_latitude": 41.9232327,
      "_longitude": 8.7390531
    },
    "description": "Point d'intérêt: Casa Corsa",
    "category": "experienceGustative",
    "categoryGroup": "Experience gustative",
    "categoryItem": "restaurant",
    "city": "Corse-du-Sud",
    "departmentCode": "2A",
    "imageUrls": [],
    "images": [],
    "websiteUrl": null,
    "website": null,
    "source": "openstreetmap",
    "osmId": 2901412331,
    "isPublic": true,
    "isValidated": true,
    "isFree": null,
    "pmrAccessible": false,
    "kidsFriendly": null,
    "createdAt": {
      "_seconds": 1772043590,
      "_nanoseconds": 0
    },
    "updatedAt": "2026-02-25T19:19:50.618641"
  },
  {
    "id": "osm_2901412332",
    "name": "Le Hussard",
    "lat": 41.921785,
    "lng": 8.7381793,
    "location": {
      "_latitude": 41.921785,
      "_longitude": 8.7381793
    },
    "description": "Point d'intérêt: Le Hussard",
    "category": "experienceGustative",
    "categoryGroup": "Experience gustative",
    "categoryItem": "restaurant",
    "city": "Corse-du-Sud",
    "departmentCode": "2A",
    "imageUrls": [],
    "images": [],
    "websiteUrl": null,
    "website": null,
    "source": "openstreetmap",
    "osmId": 2901412332,
    "isPublic": true,
    "isValidated": true,
    "isFree": null,
    "pmrAccessible": false,
    "kidsFriendly": null,
    "createdAt": {
      "_seconds": 1772043590,
      "_nanoseconds": 0
    },
    "updatedAt": "2026-02-25T19:19:50.618652"
  },
  {
    "id": "osm_2903077706",
    "name": "Paninoteca",
    "lat": 41.9191686,
    "lng": 8.7384899,
    "location": {
      "_latitude": 41.9191686,
      "_longitude": 8.7384899
    },
    "description": "Point d'intérêt: Paninoteca",
    "category": "experienceGustative",
    "categoryGroup": "Experience gustative",
    "categoryItem": "cafe",
    "city": "Corse-du-Sud",
    "departmentCode": "2A",
    "imageUrls": [],
    "images": [],
    "websiteUrl": null,
    "website": null,
    "source": "openstreetmap",
    "osmId": 2903077706,
    "isPublic": true,
    "isValidated": true,
    "isFree": null,
    "pmrAccessible": false,
    "kidsFriendly": null,
    "createdAt": {
      "_seconds": 1772043590,
      "_nanoseconds": 0
    },
    "updatedAt": "2026-02-25T19:19:50.618663"
  },
  {
    "id": "osm_2903775063",
    "name": "Buffet de la Gare",
    "lat": 41.9275009,
    "lng": 8.7388494,
    "location": {
      "_latitude": 41.9275009,
      "_longitude": 8.7388494
    },
    "description": "Point d'intérêt: Buffet de la Gare",
    "category": "experienceGustative",
    "categoryGroup": "Experience gustative",
    "categoryItem": "cafe",
    "city": "Corse-du-Sud",
    "departmentCode": "2A",
    "imageUrls": [],
    "images": [],
    "websiteUrl": null,
    "website": null,
    "source": "openstreetmap",
    "osmId": 2903775063,
    "isPublic": true,
    "isValidated": true,
    "isFree": null,
    "pmrAccessible": false,
    "kidsFriendly": null,
    "createdAt": {
      "_seconds": 1772043590,
      "_nanoseconds": 0
    },
    "updatedAt": "2026-02-25T19:19:50.618673"
  },
  {
    "id": "osm_2904618043",
    "name": "La Rotonde",
    "lat": 41.9173003,
    "lng": 8.7355109,
    "location": {
      "_latitude": 41.9173003,
      "_longitude": 8.7355109
    },
    "description": "Point d'intérêt: La Rotonde",
    "category": "experienceGustative",
    "categoryGroup": "Experience gustative",
    "categoryItem": "restaurant",
    "city": "Corse-du-Sud",
    "departmentCode": "2A",
    "imageUrls": [],
    "images": [],
    "websiteUrl": null,
    "website": null,
    "source": "openstreetmap",
    "osmId": 2904618043,
    "isPublic": true,
    "isValidated": true,
    "isFree": null,
    "pmrAccessible": false,
    "kidsFriendly": null,
    "createdAt": {
      "_seconds": 1772043590,
      "_nanoseconds": 0
    },
    "updatedAt": "2026-02-25T19:19:50.618684"
  },
  {
    "id": "osm_2904684480",
    "name": "Le Marché Gourmand",
    "lat": 41.9241059,
    "lng": 8.7381396,
    "location": {
      "_latitude": 41.9241059,
      "_longitude": 8.7381396
    },
    "description": "Point d'intérêt: Le Marché Gourmand",
    "category": "experienceGustative",
    "categoryGroup": "Experience gustative",
    "categoryItem": "restaurant",
    "city": "Corse-du-Sud",
    "departmentCode": "2A",
    "imageUrls": [],
    "images": [],
    "websiteUrl": null,
    "website": null,
    "source": "openstreetmap",
    "osmId": 2904684480,
    "isPublic": true,
    "isValidated": true,
    "isFree": null,
    "pmrAccessible": false,
    "kidsFriendly": null,
    "createdAt": {
      "_seconds": 1772043590,
      "_nanoseconds": 0
    },
    "updatedAt": "2026-02-25T19:19:50.618694"
  },
  {
    "id": "osm_2905253045",
    "name": "Café Fesch",
    "lat": 41.9174376,
    "lng": 8.7348041,
    "location": {
      "_latitude": 41.9174376,
      "_longitude": 8.7348041
    },
    "description": "Point d'intérêt: Café Fesch",
    "category": "experienceGustative",
    "categoryGroup": "Experience gustative",
    "categoryItem": "cafe",
    "city": "Corse-du-Sud",
    "departmentCode": "2A",
    "imageUrls": [],
    "images": [],
    "websiteUrl": null,
    "website": null,
    "source": "openstreetmap",
    "osmId": 2905253045,
    "isPublic": true,
    "isValidated": true,
    "isFree": null,
    "pmrAccessible": false,
    "kidsFriendly": null,
    "createdAt": {
      "_seconds": 1772043590,
      "_nanoseconds": 0
    },
    "updatedAt": "2026-02-25T19:19:50.618704"
  },
  {
    "id": "osm_2905253046",
    "name": "L'Albert 1er",
    "lat": 41.9129865,
    "lng": 8.7269689,
    "location": {
      "_latitude": 41.9129865,
      "_longitude": 8.7269689
    },
    "description": "Point d'intérêt: L'Albert 1er",
    "category": "experienceGustative",
    "categoryGroup": "Experience gustative",
    "categoryItem": "restaurant",
    "city": "Corse-du-Sud",
    "departmentCode": "2A",
    "imageUrls": [],
    "images": [],
    "websiteUrl": null,
    "website": null,
    "source": "openstreetmap",
    "osmId": 2905253046,
    "isPublic": true,
    "isValidated": true,
    "isFree": null,
    "pmrAccessible": false,
    "kidsFriendly": null,
    "createdAt": {
      "_seconds": 1772043590,
      "_nanoseconds": 0
    },
    "updatedAt": "2026-02-25T19:19:50.618716"
  },
  {
    "id": "osm_2905253047",
    "name": "La cigale",
    "lat": 41.9133783,
    "lng": 8.7280031,
    "location": {
      "_latitude": 41.9133783,
      "_longitude": 8.7280031
    },
    "description": "Point d'intérêt: La cigale",
    "category": "experienceGustative",
    "categoryGroup": "Experience gustative",
    "categoryItem": "restaurant",
    "city": "Corse-du-Sud",
    "departmentCode": "2A",
    "imageUrls": [],
    "images": [],
    "websiteUrl": null,
    "website": null,
    "source": "openstreetmap",
    "osmId": 2905253047,
    "isPublic": true,
    "isValidated": true,
    "isFree": null,
    "pmrAccessible": false,
    "kidsFriendly": null,
    "createdAt": {
      "_seconds": 1772043590,
      "_nanoseconds": 0
    },
    "updatedAt": "2026-02-25T19:19:50.618731"
  },
  {
    "id": "osm_2905253049",
    "name": "Le Lantivy",
    "lat": 41.9143789,
    "lng": 8.7292075,
    "location": {
      "_latitude": 41.9143789,
      "_longitude": 8.7292075
    },
    "description": "Point d'intérêt: Le Lantivy",
    "category": "experienceGustative",
    "categoryGroup": "Experience gustative",
    "categoryItem": "cafe",
    "city": "Corse-du-Sud",
    "departmentCode": "2A",
    "imageUrls": [],
    "images": [],
    "websiteUrl": null,
    "website": null,
    "source": "openstreetmap",
    "osmId": 2905253049,
    "isPublic": true,
    "isValidated": true,
    "isFree": null,
    "pmrAccessible": false,
    "kidsFriendly": null,
    "createdAt": {
      "_seconds": 1772043590,
      "_nanoseconds": 0
    },
    "updatedAt": "2026-02-25T19:19:50.618748"
  },
  {
    "id": "osm_2905253050",
    "name": "Pizza Albert 1er",
    "lat": 41.9132858,
    "lng": 8.7270512,
    "location": {
      "_latitude": 41.9132858,
      "_longitude": 8.7270512
    },
    "description": "Point d'intérêt: Pizza Albert 1er",
    "category": "experienceGustative",
    "categoryGroup": "Experience gustative",
    "categoryItem": "restaurant",
    "city": "Corse-du-Sud",
    "departmentCode": "2A",
    "imageUrls": [],
    "images": [],
    "websiteUrl": null,
    "website": null,
    "source": "openstreetmap",
    "osmId": 2905253050,
    "isPublic": true,
    "isValidated": true,
    "isFree": null,
    "pmrAccessible": false,
    "kidsFriendly": null,
    "createdAt": {
      "_seconds": 1772043590,
      "_nanoseconds": 0
    },
    "updatedAt": "2026-02-25T19:19:50.618759"
  },
  {
    "id": "osm_2905253220",
    "name": "u Caffe",
    "lat": 41.9133512,
    "lng": 8.7278581,
    "location": {
      "_latitude": 41.9133512,
      "_longitude": 8.7278581
    },
    "description": "Point d'intérêt: u Caffe",
    "category": "experienceGustative",
    "categoryGroup": "Experience gustative",
    "categoryItem": "cafe",
    "city": "Corse-du-Sud",
    "departmentCode": "2A",
    "imageUrls": [],
    "images": [],
    "websiteUrl": null,
    "website": null,
    "source": "openstreetmap",
    "osmId": 2905253220,
    "isPublic": true,
    "isValidated": true,
    "isFree": null,
    "pmrAccessible": false,
    "kidsFriendly": null,
    "createdAt": {
      "_seconds": 1772043590,
      "_nanoseconds": 0
    },
    "updatedAt": "2026-02-25T19:19:50.618769"
  },
  {
    "id": "osm_2905301547",
    "name": "La Lune d'Argent",
    "lat": 41.9332755,
    "lng": 8.742752,
    "location": {
      "_latitude": 41.9332755,
      "_longitude": 8.742752
    },
    "description": "Point d'intérêt: La Lune d'Argent",
    "category": "experienceGustative",
    "categoryGroup": "Experience gustative",
    "categoryItem": "cafe",
    "city": "Corse-du-Sud",
    "departmentCode": "2A",
    "imageUrls": [],
    "images": [],
    "websiteUrl": null,
    "website": null,
    "source": "openstreetmap",
    "osmId": 2905301547,
    "isPublic": true,
    "isValidated": true,
    "isFree": null,
    "pmrAccessible": false,
    "kidsFriendly": null,
    "createdAt": {
      "_seconds": 1772043590,
      "_nanoseconds": 0
    },
    "updatedAt": "2026-02-25T19:19:50.618780"
  },
  {
    "id": "osm_2905301548",
    "name": "Le Galaxy",
    "lat": 41.9333226,
    "lng": 8.7428801,
    "location": {
      "_latitude": 41.9333226,
      "_longitude": 8.7428801
    },
    "description": "Point d'intérêt: Le Galaxy",
    "category": "experienceGustative",
    "categoryGroup": "Experience gustative",
    "categoryItem": "cafe",
    "city": "Corse-du-Sud",
    "departmentCode": "2A",
    "imageUrls": [],
    "images": [],
    "websiteUrl": null,
    "website": null,
    "source": "openstreetmap",
    "osmId": 2905301548,
    "isPublic": true,
    "isValidated": true,
    "isFree": null,
    "pmrAccessible": false,
    "kidsFriendly": null,
    "createdAt": {
      "_seconds": 1772043590,
      "_nanoseconds": 0
    },
    "updatedAt": "2026-02-25T19:19:50.618791"
  },
  {
    "id": "osm_2905301549",
    "name": "Le Skipper",
    "lat": 41.9334145,
    "lng": 8.7431177,
    "location": {
      "_latitude": 41.9334145,
      "_longitude": 8.7431177
    },
    "description": "Point d'intérêt: Le Skipper",
    "category": "experienceGustative",
    "categoryGroup": "Experience gustative",
    "categoryItem": "cafe",
    "city": "Corse-du-Sud",
    "departmentCode": "2A",
    "imageUrls": [],
    "images": [],
    "websiteUrl": null,
    "website": null,
    "source": "openstreetmap",
    "osmId": 2905301549,
    "isPublic": true,
    "isValidated": true,
    "isFree": null,
    "pmrAccessible": false,
    "kidsFriendly": null,
    "createdAt": {
      "_seconds": 1772043590,
      "_nanoseconds": 0
    },
    "updatedAt": "2026-02-25T19:19:50.618801"
  },
  {
    "id": "osm_3560509348",
    "name": "Bistrot d'Emile",
    "lat": 41.9203052,
    "lng": 8.7374039,
    "location": {
      "_latitude": 41.9203052,
      "_longitude": 8.7374039
    },
    "description": "Point d'intérêt: Bistrot d'Emile",
    "category": "experienceGustative",
    "categoryGroup": "Experience gustative",
    "categoryItem": "restaurant",
    "city": "Corse-du-Sud",
    "departmentCode": "2A",
    "imageUrls": [],
    "images": [],
    "websiteUrl": null,
    "website": null,
    "source": "openstreetmap",
    "osmId": 3560509348,
    "isPublic": true,
    "isValidated": true,
    "isFree": null,
    "pmrAccessible": false,
    "kidsFriendly": null,
    "createdAt": {
      "_seconds": 1772043590,
      "_nanoseconds": 0
    },
    "updatedAt": "2026-02-25T19:19:50.618812"
  },
  {
    "id": "osm_3638580212",
    "name": "Le Bistrot du Cours",
    "lat": 41.9197052,
    "lng": 8.7371118,
    "location": {
      "_latitude": 41.9197052,
      "_longitude": 8.7371118
    },
    "description": "Café Suspendu",
    "category": "experienceGustative",
    "categoryGroup": "Experience gustative",
    "categoryItem": "restaurant",
    "city": "Corse-du-Sud",
    "departmentCode": "2A",
    "imageUrls": [],
    "images": [],
    "websiteUrl": null,
    "website": null,
    "source": "openstreetmap",
    "osmId": 3638580212,
    "isPublic": true,
    "isValidated": true,
    "isFree": null,
    "pmrAccessible": false,
    "kidsFriendly": null,
    "createdAt": {
      "_seconds": 1772043590,
      "_nanoseconds": 0
    },
    "updatedAt": "2026-02-25T19:19:50.618823"
  },
  {
    "id": "osm_3687715311",
    "name": "La cantina",
    "lat": 41.9079,
    "lng": 8.6796068,
    "location": {
      "_latitude": 41.9079,
      "_longitude": 8.6796068
    },
    "description": "Point d'intérêt: La cantina",
    "category": "experienceGustative",
    "categoryGroup": "Experience gustative",
    "categoryItem": "restaurant",
    "city": "Corse-du-Sud",
    "departmentCode": "2A",
    "imageUrls": [],
    "images": [],
    "websiteUrl": null,
    "website": null,
    "source": "openstreetmap",
    "osmId": 3687715311,
    "isPublic": true,
    "isValidated": true,
    "isFree": null,
    "pmrAccessible": false,
    "kidsFriendly": null,
    "createdAt": {
      "_seconds": 1772043590,
      "_nanoseconds": 0
    },
    "updatedAt": "2026-02-25T19:19:50.618833"
  },
  {
    "id": "osm_3687715320",
    "name": "Marinella",
    "lat": 41.9063655,
    "lng": 8.6767709,
    "location": {
      "_latitude": 41.9063655,
      "_longitude": 8.6767709
    },
    "description": "Point d'intérêt: Marinella",
    "category": "experienceGustative",
    "categoryGroup": "Experience gustative",
    "categoryItem": "restaurant",
    "city": "Corse-du-Sud",
    "departmentCode": "2A",
    "imageUrls": [],
    "images": [],
    "websiteUrl": null,
    "website": null,
    "source": "openstreetmap",
    "osmId": 3687715320,
    "isPublic": true,
    "isValidated": true,
    "isFree": null,
    "pmrAccessible": false,
    "kidsFriendly": null,
    "createdAt": {
      "_seconds": 1772043590,
      "_nanoseconds": 0
    },
    "updatedAt": "2026-02-25T19:19:50.618844"
  },
  {
    "id": "osm_3687715322",
    "name": "L'instant sushi",
    "lat": 41.9080665,
    "lng": 8.6798244,
    "location": {
      "_latitude": 41.9080665,
      "_longitude": 8.6798244
    },
    "description": "Point d'intérêt: L'instant sushi",
    "category": "experienceGustative",
    "categoryGroup": "Experience gustative",
    "categoryItem": "restaurant",
    "city": "Corse-du-Sud",
    "departmentCode": "2A",
    "imageUrls": [],
    "images": [],
    "websiteUrl": "https://www.linstant-sushi.fr/",
    "website": "https://www.linstant-sushi.fr/",
    "source": "openstreetmap",
    "osmId": 3687715322,
    "isPublic": true,
    "isValidated": true,
    "isFree": null,
    "pmrAccessible": false,
    "kidsFriendly": null,
    "createdAt": {
      "_seconds": 1772043590,
      "_nanoseconds": 0
    },
    "updatedAt": "2026-02-25T19:19:50.618855"
  },
  {
    "id": "osm_3687715333",
    "name": "Palm Beach",
    "lat": 41.9074822,
    "lng": 8.6789666,
    "location": {
      "_latitude": 41.9074822,
      "_longitude": 8.6789666
    },
    "description": "Point d'intérêt: Palm Beach",
    "category": "experienceGustative",
    "categoryGroup": "Experience gustative",
    "categoryItem": "restaurant",
    "city": "Corse-du-Sud",
    "departmentCode": "2A",
    "imageUrls": [],
    "images": [],
    "websiteUrl": null,
    "website": null,
    "source": "openstreetmap",
    "osmId": 3687715333,
    "isPublic": true,
    "isValidated": true,
    "isFree": null,
    "pmrAccessible": false,
    "kidsFriendly": null,
    "createdAt": {
      "_seconds": 1772043590,
      "_nanoseconds": 0
    },
    "updatedAt": "2026-02-25T19:19:50.618866"
  },
  {
    "id": "osm_3687715340",
    "name": "Texas Café",
    "lat": 41.9079666,
    "lng": 8.6805138,
    "location": {
      "_latitude": 41.9079666,
      "_longitude": 8.6805138
    },
    "description": "Point d'intérêt: Texas Café",
    "category": "experienceGustative",
    "categoryGroup": "Experience gustative",
    "categoryItem": "restaurant",
    "city": "Corse-du-Sud",
    "departmentCode": "2A",
    "imageUrls": [],
    "images": [],
    "websiteUrl": null,
    "website": null,
    "source": "openstreetmap",
    "osmId": 3687715340,
    "isPublic": true,
    "isValidated": true,
    "isFree": null,
    "pmrAccessible": false,
    "kidsFriendly": null,
    "createdAt": {
      "_seconds": 1772043590,
      "_nanoseconds": 0
    },
    "updatedAt": "2026-02-25T19:19:50.618881"
  },
  {
    "id": "osm_3687715344",
    "name": "Neptune Plage",
    "lat": 41.9076195,
    "lng": 8.6805586,
    "location": {
      "_latitude": 41.9076195,
      "_longitude": 8.6805586
    },
    "description": "Point d'intérêt: Neptune Plage",
    "category": "experienceGustative",
    "categoryGroup": "Experience gustative",
    "categoryItem": "restaurant",
    "city": "Corse-du-Sud",
    "departmentCode": "2A",
    "imageUrls": [],
    "images": [],
    "websiteUrl": null,
    "website": null,
    "source": "openstreetmap",
    "osmId": 3687715344,
    "isPublic": true,
    "isValidated": true,
    "isFree": null,
    "pmrAccessible": false,
    "kidsFriendly": null,
    "createdAt": {
      "_seconds": 1772043590,
      "_nanoseconds": 0
    },
    "updatedAt": "2026-02-25T19:19:50.618992"
  },
  {
    "id": "osm_3687715346",
    "name": "Casa Pasta",
    "lat": 41.9082312,
    "lng": 8.6801549,
    "location": {
      "_latitude": 41.9082312,
      "_longitude": 8.6801549
    },
    "description": "Point d'intérêt: Casa Pasta",
    "category": "experienceGustative",
    "categoryGroup": "Experience gustative",
    "categoryItem": "restaurant",
    "city": "Corse-du-Sud",
    "departmentCode": "2A",
    "imageUrls": [],
    "images": [],
    "websiteUrl": null,
    "website": null,
    "source": "openstreetmap",
    "osmId": 3687715346,
    "isPublic": true,
    "isValidated": true,
    "isFree": null,
    "pmrAccessible": false,
    "kidsFriendly": null,
    "createdAt": {
      "_seconds": 1772043590,
      "_nanoseconds": 0
    },
    "updatedAt": "2026-02-25T19:19:50.619003"
  },
  {
    "id": "osm_3687715355",
    "name": "Le Piment Rouge",
    "lat": 41.9079197,
    "lng": 8.6797536,
    "location": {
      "_latitude": 41.9079197,
      "_longitude": 8.6797536
    },
    "description": "Point d'intérêt: Le Piment Rouge",
    "category": "experienceGustative",
    "categoryGroup": "Experience gustative",
    "categoryItem": "restaurant",
    "city": "Corse-du-Sud",
    "departmentCode": "2A",
    "imageUrls": [],
    "images": [],
    "websiteUrl": null,
    "website": null,
    "source": "openstreetmap",
    "osmId": 3687715355,
    "isPublic": true,
    "isValidated": true,
    "isFree": null,
    "pmrAccessible": false,
    "kidsFriendly": null,
    "createdAt": {
      "_seconds": 1772043590,
      "_nanoseconds": 0
    },
    "updatedAt": "2026-02-25T19:19:50.619014"
  },
  {
    "id": "osm_3687715364",
    "name": "Kos",
    "lat": 41.9071945,
    "lng": 8.6780925,
    "location": {
      "_latitude": 41.9071945,
      "_longitude": 8.6780925
    },
    "description": "Point d'intérêt: Kos",
    "category": "experienceGustative",
    "categoryGroup": "Experience gustative",
    "categoryItem": "restaurant",
    "city": "Corse-du-Sud",
    "departmentCode": "2A",
    "imageUrls": [],
    "images": [],
    "websiteUrl": null,
    "website": null,
    "source": "openstreetmap",
    "osmId": 3687715364,
    "isPublic": true,
    "isValidated": true,
    "isFree": null,
    "pmrAccessible": false,
    "kidsFriendly": null,
    "createdAt": {
      "_seconds": 1772043590,
      "_nanoseconds": 0
    },
    "updatedAt": "2026-02-25T19:19:50.619025"
  },
  {
    "id": "osm_3687715366",
    "name": "L'Ariadne",
    "lat": 41.9077531,
    "lng": 8.6828463,
    "location": {
      "_latitude": 41.9077531,
      "_longitude": 8.6828463
    },
    "description": "Point d'intérêt: L'Ariadne",
    "category": "experienceGustative",
    "categoryGroup": "Experience gustative",
    "categoryItem": "restaurant",
    "city": "Corse-du-Sud",
    "departmentCode": "2A",
    "imageUrls": [],
    "images": [],
    "websiteUrl": null,
    "website": null,
    "source": "openstreetmap",
    "osmId": 3687715366,
    "isPublic": true,
    "isValidated": true,
    "isFree": null,
    "pmrAccessible": false,
    "kidsFriendly": null,
    "createdAt": {
      "_seconds": 1772043590,
      "_nanoseconds": 0
    },
    "updatedAt": "2026-02-25T19:19:50.619040"
  },
  {
    "id": "osm_3687715367",
    "name": "China Blue",
    "lat": 41.9081674,
    "lng": 8.6802784,
    "location": {
      "_latitude": 41.9081674,
      "_longitude": 8.6802784
    },
    "description": "Point d'intérêt: China Blue",
    "category": "experienceGustative",
    "categoryGroup": "Experience gustative",
    "categoryItem": "restaurant",
    "city": "Corse-du-Sud",
    "departmentCode": "2A",
    "imageUrls": [],
    "images": [],
    "websiteUrl": null,
    "website": null,
    "source": "openstreetmap",
    "osmId": 3687715367,
    "isPublic": true,
    "isValidated": true,
    "isFree": null,
    "pmrAccessible": false,
    "kidsFriendly": null,
    "createdAt": {
      "_seconds": 1772043590,
      "_nanoseconds": 0
    },
    "updatedAt": "2026-02-25T19:19:50.619052"
  },
  {
    "id": "osm_3688915223",
    "name": "Barbicaggia",
    "lat": 41.9093127,
    "lng": 8.6903006,
    "location": {
      "_latitude": 41.9093127,
      "_longitude": 8.6903006
    },
    "description": "Point d'intérêt: Barbicaggia",
    "category": "experienceGustative",
    "categoryGroup": "Experience gustative",
    "categoryItem": "restaurant",
    "city": "Corse-du-Sud",
    "departmentCode": "2A",
    "imageUrls": [],
    "images": [],
    "websiteUrl": null,
    "website": null,
    "source": "openstreetmap",
    "osmId": 3688915223,
    "isPublic": true,
    "isValidated": true,
    "isFree": null,
    "pmrAccessible": false,
    "kidsFriendly": null,
    "createdAt": {
      "_seconds": 1772043590,
      "_nanoseconds": 0
    },
    "updatedAt": "2026-02-25T19:19:50.619063"
  },
  {
    "id": "osm_3688928730",
    "name": "Côté Plage",
    "lat": 41.9093095,
    "lng": 8.6888345,
    "location": {
      "_latitude": 41.9093095,
      "_longitude": 8.6888345
    },
    "description": "Point d'intérêt: Côté Plage",
    "category": "experienceGustative",
    "categoryGroup": "Experience gustative",
    "categoryItem": "restaurant",
    "city": "Corse-du-Sud",
    "departmentCode": "2A",
    "imageUrls": [],
    "images": [],
    "websiteUrl": null,
    "website": null,
    "source": "openstreetmap",
    "osmId": 3688928730,
    "isPublic": true,
    "isValidated": true,
    "isFree": null,
    "pmrAccessible": false,
    "kidsFriendly": null,
    "createdAt": {
      "_seconds": 1772043590,
      "_nanoseconds": 0
    },
    "updatedAt": "2026-02-25T19:19:50.619074"
  },
  {
    "id": "osm_3920393542",
    "name": "L'arbre",
    "lat": 41.9202593,
    "lng": 8.7375407,
    "location": {
      "_latitude": 41.9202593,
      "_longitude": 8.7375407
    },
    "description": "Point d'intérêt: L'arbre",
    "category": "experienceGustative",
    "categoryGroup": "Experience gustative",
    "categoryItem": "restaurant",
    "city": "Corse-du-Sud",
    "departmentCode": "2A",
    "imageUrls": [],
    "images": [],
    "websiteUrl": null,
    "website": null,
    "source": "openstreetmap",
    "osmId": 3920393542,
    "isPublic": true,
    "isValidated": true,
    "isFree": null,
    "pmrAccessible": false,
    "kidsFriendly": null,
    "createdAt": {
      "_seconds": 1772043590,
      "_nanoseconds": 0
    },
    "updatedAt": "2026-02-25T19:19:50.619084"
  },
  {
    "id": "osm_4408731527",
    "name": "Boulangerie Gambini",
    "lat": 41.9363624,
    "lng": 8.7410451,
    "location": {
      "_latitude": 41.9363624,
      "_longitude": 8.7410451
    },
    "description": "Point d'intérêt: Boulangerie Gambini",
    "category": "experienceGustative",
    "categoryGroup": "Experience gustative",
    "categoryItem": "bakery",
    "city": "Corse-du-Sud",
    "departmentCode": "2A",
    "imageUrls": [],
    "images": [],
    "websiteUrl": null,
    "website": null,
    "source": "openstreetmap",
    "osmId": 4408731527,
    "isPublic": true,
    "isValidated": true,
    "isFree": null,
    "pmrAccessible": false,
    "kidsFriendly": null,
    "createdAt": {
      "_seconds": 1772043590,
      "_nanoseconds": 0
    },
    "updatedAt": "2026-02-25T19:19:50.619096"
  },
  {
    "id": "osm_4409255695",
    "name": "POI sans nom",
    "lat": 41.9338346,
    "lng": 8.7413176,
    "location": {
      "_latitude": 41.9338346,
      "_longitude": 8.7413176
    },
    "description": "Point d'intérêt: POI sans nom",
    "category": "experienceGustative",
    "categoryGroup": "Experience gustative",
    "categoryItem": "bakery",
    "city": "Corse-du-Sud",
    "departmentCode": "2A",
    "imageUrls": [],
    "images": [],
    "websiteUrl": null,
    "website": null,
    "source": "openstreetmap",
    "osmId": 4409255695,
    "isPublic": true,
    "isValidated": true,
    "isFree": null,
    "pmrAccessible": false,
    "kidsFriendly": null,
    "createdAt": {
      "_seconds": 1772043590,
      "_nanoseconds": 0
    },
    "updatedAt": "2026-02-25T19:19:50.619108"
  },
  {
    "id": "osm_4492625830",
    "name": "Buffalo Grill",
    "lat": 41.9453116,
    "lng": 8.7545411,
    "location": {
      "_latitude": 41.9453116,
      "_longitude": 8.7545411
    },
    "description": "Point d'intérêt: Buffalo Grill",
    "category": "experienceGustative",
    "categoryGroup": "Experience gustative",
    "categoryItem": "restaurant",
    "city": "Corse-du-Sud",
    "departmentCode": "2A",
    "imageUrls": [],
    "images": [],
    "websiteUrl": null,
    "website": null,
    "source": "openstreetmap",
    "osmId": 4492625830,
    "isPublic": true,
    "isValidated": true,
    "isFree": null,
    "pmrAccessible": false,
    "kidsFriendly": null,
    "createdAt": {
      "_seconds": 1772043590,
      "_nanoseconds": 0
    },
    "updatedAt": "2026-02-25T19:19:50.619124"
  },
  {
    "id": "osm_4542752990",
    "name": "La Trattoria Pizzeria",
    "lat": 41.9178593,
    "lng": 8.7314992,
    "location": {
      "_latitude": 41.9178593,
      "_longitude": 8.7314992
    },
    "description": "Point d'intérêt: La Trattoria Pizzeria",
    "category": "experienceGustative",
    "categoryGroup": "Experience gustative",
    "categoryItem": "restaurant",
    "city": "Corse-du-Sud",
    "departmentCode": "2A",
    "imageUrls": [],
    "images": [],
    "websiteUrl": null,
    "website": null,
    "source": "openstreetmap",
    "osmId": 4542752990,
    "isPublic": true,
    "isValidated": true,
    "isFree": null,
    "pmrAccessible": false,
    "kidsFriendly": null,
    "createdAt": {
      "_seconds": 1772043590,
      "_nanoseconds": 0
    },
    "updatedAt": "2026-02-25T19:19:50.619135"
  },
  {
    "id": "osm_4542757696",
    "name": "place miot",
    "lat": 41.9136124,
    "lng": 8.7296328,
    "location": {
      "_latitude": 41.9136124,
      "_longitude": 8.7296328
    },
    "description": "Point d'intérêt: place miot",
    "category": "experienceGustative",
    "categoryGroup": "Experience gustative",
    "categoryItem": "cafe",
    "city": "Corse-du-Sud",
    "departmentCode": "2A",
    "imageUrls": [],
    "images": [],
    "websiteUrl": null,
    "website": null,
    "source": "openstreetmap",
    "osmId": 4542757696,
    "isPublic": true,
    "isValidated": true,
    "isFree": null,
    "pmrAccessible": false,
    "kidsFriendly": null,
    "createdAt": {
      "_seconds": 1772043590,
      "_nanoseconds": 0
    },
    "updatedAt": "2026-02-25T19:19:50.619149"
  },
  {
    "id": "osm_4544944810",
    "name": "Le Pavillon Bleu",
    "lat": 41.9169528,
    "lng": 8.7257045,
    "location": {
      "_latitude": 41.9169528,
      "_longitude": 8.7257045
    },
    "description": "Point d'intérêt: Le Pavillon Bleu",
    "category": "experienceGustative",
    "categoryGroup": "Experience gustative",
    "categoryItem": "restaurant",
    "city": "Corse-du-Sud",
    "departmentCode": "2A",
    "imageUrls": [],
    "images": [],
    "websiteUrl": null,
    "website": null,
    "source": "openstreetmap",
    "osmId": 4544944810,
    "isPublic": true,
    "isValidated": true,
    "isFree": null,
    "pmrAccessible": false,
    "kidsFriendly": null,
    "createdAt": {
      "_seconds": 1772043590,
      "_nanoseconds": 0
    },
    "updatedAt": "2026-02-25T19:19:50.619162"
  },
  {
    "id": "osm_4905354822",
    "name": "Bar Le Floride",
    "lat": 41.9343449,
    "lng": 8.7381474,
    "location": {
      "_latitude": 41.9343449,
      "_longitude": 8.7381474
    },
    "description": "Point d'intérêt: Bar Le Floride",
    "category": "experienceGustative",
    "categoryGroup": "Experience gustative",
    "categoryItem": "cafe",
    "city": "Corse-du-Sud",
    "departmentCode": "2A",
    "imageUrls": [],
    "images": [],
    "websiteUrl": null,
    "website": null,
    "source": "openstreetmap",
    "osmId": 4905354822,
    "isPublic": true,
    "isValidated": true,
    "isFree": null,
    "pmrAccessible": false,
    "kidsFriendly": null,
    "createdAt": {
      "_seconds": 1772043590,
      "_nanoseconds": 0
    },
    "updatedAt": "2026-02-25T19:19:50.619173"
  },
  {
    "id": "osm_4907393021",
    "name": "Le Grain de Café",
    "lat": 41.9130488,
    "lng": 8.7260295,
    "location": {
      "_latitude": 41.9130488,
      "_longitude": 8.7260295
    },
    "description": "Point d'intérêt: Le Grain de Café",
    "category": "experienceGustative",
    "categoryGroup": "Experience gustative",
    "categoryItem": "cafe",
    "city": "Corse-du-Sud",
    "departmentCode": "2A",
    "imageUrls": [],
    "images": [],
    "websiteUrl": null,
    "website": null,
    "source": "openstreetmap",
    "osmId": 4907393021,
    "isPublic": true,
    "isValidated": true,
    "isFree": null,
    "pmrAccessible": false,
    "kidsFriendly": null,
    "createdAt": {
      "_seconds": 1772043590,
      "_nanoseconds": 0
    },
    "updatedAt": "2026-02-25T19:19:50.619184"
  },
  {
    "id": "osm_4908046505",
    "name": "Ettori",
    "lat": 41.8931804,
    "lng": 8.8056413,
    "location": {
      "_latitude": 41.8931804,
      "_longitude": 8.8056413
    },
    "description": "Point d'intérêt: Ettori",
    "category": "experienceGustative",
    "categoryGroup": "Experience gustative",
    "categoryItem": "bakery",
    "city": "Corse-du-Sud",
    "departmentCode": "2A",
    "imageUrls": [],
    "images": [],
    "websiteUrl": null,
    "website": null,
    "source": "openstreetmap",
    "osmId": 4908046505,
    "isPublic": true,
    "isValidated": true,
    "isFree": null,
    "pmrAccessible": false,
    "kidsFriendly": null,
    "createdAt": {
      "_seconds": 1772043590,
      "_nanoseconds": 0
    },
    "updatedAt": "2026-02-25T19:19:50.619195"
  },
  {
    "id": "osm_4908046506",
    "name": "POI sans nom",
    "lat": 41.8932362,
    "lng": 8.8056977,
    "location": {
      "_latitude": 41.8932362,
      "_longitude": 8.8056977
    },
    "description": "Point d'intérêt: POI sans nom",
    "category": "experienceGustative",
    "categoryGroup": "Experience gustative",
    "categoryItem": "cafe",
    "city": "Corse-du-Sud",
    "departmentCode": "2A",
    "imageUrls": [],
    "images": [],
    "websiteUrl": null,
    "website": null,
    "source": "openstreetmap",
    "osmId": 4908046506,
    "isPublic": true,
    "isValidated": true,
    "isFree": null,
    "pmrAccessible": false,
    "kidsFriendly": null,
    "createdAt": {
      "_seconds": 1772043590,
      "_nanoseconds": 0
    },
    "updatedAt": "2026-02-25T19:19:50.619206"
  },
  {
    "id": "osm_4909173588",
    "name": "Pâtisserie Au Bon Pain du Casone",
    "lat": 41.9171798,
    "lng": 8.7272719,
    "location": {
      "_latitude": 41.9171798,
      "_longitude": 8.7272719
    },
    "description": "Point d'intérêt: Pâtisserie Au Bon Pain du Casone",
    "category": "experienceGustative",
    "categoryGroup": "Experience gustative",
    "categoryItem": "bakery",
    "city": "Corse-du-Sud",
    "departmentCode": "2A",
    "imageUrls": [],
    "images": [],
    "websiteUrl": null,
    "website": null,
    "source": "openstreetmap",
    "osmId": 4909173588,
    "isPublic": true,
    "isValidated": true,
    "isFree": null,
    "pmrAccessible": false,
    "kidsFriendly": null,
    "createdAt": {
      "_seconds": 1772043590,
      "_nanoseconds": 0
    },
    "updatedAt": "2026-02-25T19:19:50.619217"
  },
  {
    "id": "osm_5043726121",
    "name": "L’écrin",
    "lat": 41.9171474,
    "lng": 8.7270367,
    "location": {
      "_latitude": 41.9171474,
      "_longitude": 8.7270367
    },
    "description": "Point d'intérêt: L’écrin",
    "category": "experienceGustative",
    "categoryGroup": "Experience gustative",
    "categoryItem": "restaurant",
    "city": "Corse-du-Sud",
    "departmentCode": "2A",
    "imageUrls": [],
    "images": [],
    "websiteUrl": null,
    "website": null,
    "source": "openstreetmap",
    "osmId": 5043726121,
    "isPublic": true,
    "isValidated": true,
    "isFree": null,
    "pmrAccessible": false,
    "kidsFriendly": null,
    "createdAt": {
      "_seconds": 1772043590,
      "_nanoseconds": 0
    },
    "updatedAt": "2026-02-25T19:19:50.619229"
  },
  {
    "id": "osm_5075075823",
    "name": "Le Cheval Blanc",
    "lat": 41.9176902,
    "lng": 8.7392755,
    "location": {
      "_latitude": 41.9176902,
      "_longitude": 8.7392755
    },
    "description": "Point d'intérêt: Le Cheval Blanc",
    "category": "experienceGustative",
    "categoryGroup": "Experience gustative",
    "categoryItem": "restaurant",
    "city": "Corse-du-Sud",
    "departmentCode": "2A",
    "imageUrls": [],
    "images": [],
    "websiteUrl": null,
    "website": null,
    "source": "openstreetmap",
    "osmId": 5075075823,
    "isPublic": true,
    "isValidated": true,
    "isFree": null,
    "pmrAccessible": false,
    "kidsFriendly": null,
    "createdAt": {
      "_seconds": 1772043590,
      "_nanoseconds": 0
    },
    "updatedAt": "2026-02-25T19:19:50.619244"
  },
  {
    "id": "osm_5075093923",
    "name": "Abbatucci",
    "lat": 41.9251169,
    "lng": 8.7384403,
    "location": {
      "_latitude": 41.9251169,
      "_longitude": 8.7384403
    },
    "description": "Point d'intérêt: Abbatucci",
    "category": "experienceGustative",
    "categoryGroup": "Experience gustative",
    "categoryItem": "restaurant",
    "city": "Corse-du-Sud",
    "departmentCode": "2A",
    "imageUrls": [],
    "images": [],
    "websiteUrl": null,
    "website": null,
    "source": "openstreetmap",
    "osmId": 5075093923,
    "isPublic": true,
    "isValidated": true,
    "isFree": null,
    "pmrAccessible": false,
    "kidsFriendly": null,
    "createdAt": {
      "_seconds": 1772043590,
      "_nanoseconds": 0
    },
    "updatedAt": "2026-02-25T19:19:50.619255"
  },
  {
    "id": "osm_5075099821",
    "name": "Le Petit Cheval Blanc",
    "lat": 41.917575,
    "lng": 8.7394108,
    "location": {
      "_latitude": 41.917575,
      "_longitude": 8.7394108
    },
    "description": "Point d'intérêt: Le Petit Cheval Blanc",
    "category": "experienceGustative",
    "categoryGroup": "Experience gustative",
    "categoryItem": "restaurant",
    "city": "Corse-du-Sud",
    "departmentCode": "2A",
    "imageUrls": [],
    "images": [],
    "websiteUrl": null,
    "website": null,
    "source": "openstreetmap",
    "osmId": 5075099821,
    "isPublic": true,
    "isValidated": true,
    "isFree": null,
    "pmrAccessible": false,
    "kidsFriendly": null,
    "createdAt": {
      "_seconds": 1772043590,
      "_nanoseconds": 0
    },
    "updatedAt": "2026-02-25T19:19:50.619272"
  },
  {
    "id": "osm_5088141686",
    "name": "Boulangerie Galeani",
    "lat": 41.9195978,
    "lng": 8.7377023,
    "location": {
      "_latitude": 41.9195978,
      "_longitude": 8.7377023
    },
    "description": "Point d'intérêt: Boulangerie Galeani",
    "category": "experienceGustative",
    "categoryGroup": "Experience gustative",
    "categoryItem": "bakery",
    "city": "Corse-du-Sud",
    "departmentCode": "2A",
    "imageUrls": [],
    "images": [],
    "websiteUrl": null,
    "website": null,
    "source": "openstreetmap",
    "osmId": 5088141686,
    "isPublic": true,
    "isValidated": true,
    "isFree": null,
    "pmrAccessible": false,
    "kidsFriendly": null,
    "createdAt": {
      "_seconds": 1772043590,
      "_nanoseconds": 0
    },
    "updatedAt": "2026-02-25T19:19:50.619283"
  },
  {
    "id": "osm_5138522121",
    "name": "Créperie de Lava",
    "lat": 41.992386,
    "lng": 8.6719323,
    "location": {
      "_latitude": 41.992386,
      "_longitude": 8.6719323
    },
    "description": "Point d'intérêt: Créperie de Lava",
    "category": "experienceGustative",
    "categoryGroup": "Experience gustative",
    "categoryItem": "cafe",
    "city": "Corse-du-Sud",
    "departmentCode": "2A",
    "imageUrls": [],
    "images": [],
    "websiteUrl": null,
    "website": null,
    "source": "openstreetmap",
    "osmId": 5138522121,
    "isPublic": true,
    "isValidated": true,
    "isFree": null,
    "pmrAccessible": false,
    "kidsFriendly": null,
    "createdAt": {
      "_seconds": 1772043590,
      "_nanoseconds": 0
    },
    "updatedAt": "2026-02-25T19:19:50.619293"
  },
  {
    "id": "osm_5354750827",
    "name": "La Pause",
    "lat": 41.9264756,
    "lng": 8.7366704,
    "location": {
      "_latitude": 41.9264756,
      "_longitude": 8.7366704
    },
    "description": "SAS LA PAUSE, spécialités pâte",
    "category": "experienceGustative",
    "categoryGroup": "Experience gustative",
    "categoryItem": "restaurant",
    "city": "Corse-du-Sud",
    "departmentCode": "2A",
    "imageUrls": [],
    "images": [],
    "websiteUrl": null,
    "website": null,
    "source": "openstreetmap",
    "osmId": 5354750827,
    "isPublic": true,
    "isValidated": true,
    "isFree": null,
    "pmrAccessible": false,
    "kidsFriendly": null,
    "createdAt": {
      "_seconds": 1772043590,
      "_nanoseconds": 0
    },
    "updatedAt": "2026-02-25T19:19:50.619303"
  },
  {
    "id": "osm_5580249323",
    "name": "L'Avenue",
    "lat": 41.920913,
    "lng": 8.7386227,
    "location": {
      "_latitude": 41.920913,
      "_longitude": 8.7386227
    },
    "description": "Point d'intérêt: L'Avenue",
    "category": "experienceGustative",
    "categoryGroup": "Experience gustative",
    "categoryItem": "cafe",
    "city": "Corse-du-Sud",
    "departmentCode": "2A",
    "imageUrls": [],
    "images": [],
    "websiteUrl": null,
    "website": null,
    "source": "openstreetmap",
    "osmId": 5580249323,
    "isPublic": true,
    "isValidated": true,
    "isFree": null,
    "pmrAccessible": false,
    "kidsFriendly": null,
    "createdAt": {
      "_seconds": 1772043590,
      "_nanoseconds": 0
    },
    "updatedAt": "2026-02-25T19:19:50.619314"
  },
  {
    "id": "osm_5795214153",
    "name": "Les Temps des Oliviers",
    "lat": 41.9196595,
    "lng": 8.7379759,
    "location": {
      "_latitude": 41.9196595,
      "_longitude": 8.7379759
    },
    "description": "Point d'intérêt: Les Temps des Oliviers",
    "category": "experienceGustative",
    "categoryGroup": "Experience gustative",
    "categoryItem": "restaurant",
    "city": "Corse-du-Sud",
    "departmentCode": "2A",
    "imageUrls": [],
    "images": [],
    "websiteUrl": null,
    "website": null,
    "source": "openstreetmap",
    "osmId": 5795214153,
    "isPublic": true,
    "isValidated": true,
    "isFree": null,
    "pmrAccessible": false,
    "kidsFriendly": null,
    "createdAt": {
      "_seconds": 1772043590,
      "_nanoseconds": 0
    },
    "updatedAt": "2026-02-25T19:19:50.619325"
  },
  {
    "id": "osm_5795214253",
    "name": "L'Amirauté",
    "lat": 41.9289354,
    "lng": 8.7404558,
    "location": {
      "_latitude": 41.9289354,
      "_longitude": 8.7404558
    },
    "description": "Point d'intérêt: L'Amirauté",
    "category": "experienceGustative",
    "categoryGroup": "Experience gustative",
    "categoryItem": "restaurant",
    "city": "Corse-du-Sud",
    "departmentCode": "2A",
    "imageUrls": [],
    "images": [],
    "websiteUrl": null,
    "website": null,
    "source": "openstreetmap",
    "osmId": 5795214253,
    "isPublic": true,
    "isValidated": true,
    "isFree": null,
    "pmrAccessible": false,
    "kidsFriendly": null,
    "createdAt": {
      "_seconds": 1772043590,
      "_nanoseconds": 0
    },
    "updatedAt": "2026-02-25T19:19:50.619335"
  },
  {
    "id": "osm_5795229253",
    "name": "Le Colony",
    "lat": 41.9117593,
    "lng": 8.7200976,
    "location": {
      "_latitude": 41.9117593,
      "_longitude": 8.7200976
    },
    "description": "Point d'intérêt: Le Colony",
    "category": "experienceGustative",
    "categoryGroup": "Experience gustative",
    "categoryItem": "restaurant",
    "city": "Corse-du-Sud",
    "departmentCode": "2A",
    "imageUrls": [],
    "images": [],
    "websiteUrl": null,
    "website": null,
    "source": "openstreetmap",
    "osmId": 5795229253,
    "isPublic": true,
    "isValidated": true,
    "isFree": null,
    "pmrAccessible": false,
    "kidsFriendly": null,
    "createdAt": {
      "_seconds": 1772043590,
      "_nanoseconds": 0
    },
    "updatedAt": "2026-02-25T19:19:50.619348"
  },
  {
    "id": "osm_5802243633",
    "name": "Pizzeria Camping Barbicaja",
    "lat": 41.9095824,
    "lng": 8.6855833,
    "location": {
      "_latitude": 41.9095824,
      "_longitude": 8.6855833
    },
    "description": "Point d'intérêt: Pizzeria Camping Barbicaja",
    "category": "experienceGustative",
    "categoryGroup": "Experience gustative",
    "categoryItem": "restaurant",
    "city": "Corse-du-Sud",
    "departmentCode": "2A",
    "imageUrls": [],
    "images": [],
    "websiteUrl": null,
    "website": null,
    "source": "openstreetmap",
    "osmId": 5802243633,
    "isPublic": true,
    "isValidated": true,
    "isFree": null,
    "pmrAccessible": false,
    "kidsFriendly": null,
    "createdAt": {
      "_seconds": 1772043590,
      "_nanoseconds": 0
    },
    "updatedAt": "2026-02-25T19:19:50.619358"
  },
  {
    "id": "osm_5803974634",
    "name": "B612",
    "lat": 41.9175407,
    "lng": 8.7367882,
    "location": {
      "_latitude": 41.9175407,
      "_longitude": 8.7367882
    },
    "description": "Point d'intérêt: B612",
    "category": "experienceGustative",
    "categoryGroup": "Experience gustative",
    "categoryItem": "restaurant",
    "city": "Corse-du-Sud",
    "departmentCode": "2A",
    "imageUrls": [],
    "images": [],
    "websiteUrl": null,
    "website": null,
    "source": "openstreetmap",
    "osmId": 5803974634,
    "isPublic": true,
    "isValidated": true,
    "isFree": null,
    "pmrAccessible": false,
    "kidsFriendly": null,
    "createdAt": {
      "_seconds": 1772043590,
      "_nanoseconds": 0
    },
    "updatedAt": "2026-02-25T19:19:50.619369"
  },
  {
    "id": "osm_5804137936",
    "name": "L'Atelier Papilles",
    "lat": 41.9181852,
    "lng": 8.7351671,
    "location": {
      "_latitude": 41.9181852,
      "_longitude": 8.7351671
    },
    "description": "Point d'intérêt: L'Atelier Papilles",
    "category": "experienceGustative",
    "categoryGroup": "Experience gustative",
    "categoryItem": "bakery",
    "city": "Corse-du-Sud",
    "departmentCode": "2A",
    "imageUrls": [],
    "images": [],
    "websiteUrl": null,
    "website": null,
    "source": "openstreetmap",
    "osmId": 5804137936,
    "isPublic": true,
    "isValidated": true,
    "isFree": null,
    "pmrAccessible": false,
    "kidsFriendly": null,
    "createdAt": {
      "_seconds": 1772043590,
      "_nanoseconds": 0
    },
    "updatedAt": "2026-02-25T19:19:50.619380"
  },
  {
    "id": "osm_5804137937",
    "name": "O'Kfe",
    "lat": 41.9186917,
    "lng": 8.7362945,
    "location": {
      "_latitude": 41.9186917,
      "_longitude": 8.7362945
    },
    "description": "Point d'intérêt: O'Kfe",
    "category": "experienceGustative",
    "categoryGroup": "Experience gustative",
    "categoryItem": "cafe",
    "city": "Corse-du-Sud",
    "departmentCode": "2A",
    "imageUrls": [],
    "images": [],
    "websiteUrl": null,
    "website": null,
    "source": "openstreetmap",
    "osmId": 5804137937,
    "isPublic": true,
    "isValidated": true,
    "isFree": null,
    "pmrAccessible": false,
    "kidsFriendly": null,
    "createdAt": {
      "_seconds": 1772043590,
      "_nanoseconds": 0
    },
    "updatedAt": "2026-02-25T19:19:50.619390"
  },
  {
    "id": "osm_5823335453",
    "name": "Carpe Diem Café",
    "lat": 41.9241272,
    "lng": 8.7377017,
    "location": {
      "_latitude": 41.9241272,
      "_longitude": 8.7377017
    },
    "description": "Point d'intérêt: Carpe Diem Café",
    "category": "experienceGustative",
    "categoryGroup": "Experience gustative",
    "categoryItem": "cafe",
    "city": "Corse-du-Sud",
    "departmentCode": "2A",
    "imageUrls": [],
    "images": [],
    "websiteUrl": "https://www.carpe-diem-cafe.fr",
    "website": "https://www.carpe-diem-cafe.fr",
    "source": "openstreetmap",
    "osmId": 5823335453,
    "isPublic": true,
    "isValidated": true,
    "isFree": null,
    "pmrAccessible": false,
    "kidsFriendly": null,
    "createdAt": {
      "_seconds": 1772043590,
      "_nanoseconds": 0
    },
    "updatedAt": "2026-02-25T19:19:50.619414"
  },
  {
    "id": "osm_5894819285",
    "name": "Au bon pain de la Rocade",
    "lat": 41.9433802,
    "lng": 8.7541074,
    "location": {
      "_latitude": 41.9433802,
      "_longitude": 8.7541074
    },
    "description": "Point d'intérêt: Au bon pain de la Rocade",
    "category": "experienceGustative",
    "categoryGroup": "Experience gustative",
    "categoryItem": "bakery",
    "city": "Corse-du-Sud",
    "departmentCode": "2A",
    "imageUrls": [],
    "images": [],
    "websiteUrl": null,
    "website": null,
    "source": "openstreetmap",
    "osmId": 5894819285,
    "isPublic": true,
    "isValidated": true,
    "isFree": null,
    "pmrAccessible": false,
    "kidsFriendly": null,
    "createdAt": {
      "_seconds": 1772043590,
      "_nanoseconds": 0
    },
    "updatedAt": "2026-02-25T19:19:50.619425"
  },
  {
    "id": "osm_5927164846",
    "name": "La Cuinguette",
    "lat": 41.9180576,
    "lng": 8.7365903,
    "location": {
      "_latitude": 41.9180576,
      "_longitude": 8.7365903
    },
    "description": "Panini and Crèpes",
    "category": "experienceGustative",
    "categoryGroup": "Experience gustative",
    "categoryItem": "cafe",
    "city": "Corse-du-Sud",
    "departmentCode": "2A",
    "imageUrls": [],
    "images": [],
    "websiteUrl": null,
    "website": null,
    "source": "openstreetmap",
    "osmId": 5927164846,
    "isPublic": true,
    "isValidated": true,
    "isFree": null,
    "pmrAccessible": false,
    "kidsFriendly": null,
    "createdAt": {
      "_seconds": 1772043590,
      "_nanoseconds": 0
    },
    "updatedAt": "2026-02-25T19:19:50.619435"
  },
  {
    "id": "osm_5927164984",
    "name": "Brasserie A Mezzana",
    "lat": 41.964043,
    "lng": 8.813018,
    "location": {
      "_latitude": 41.964043,
      "_longitude": 8.813018
    },
    "description": "Point d'intérêt: Brasserie A Mezzana",
    "category": "experienceGustative",
    "categoryGroup": "Experience gustative",
    "categoryItem": "restaurant",
    "city": "Corse-du-Sud",
    "departmentCode": "2A",
    "imageUrls": [],
    "images": [],
    "websiteUrl": null,
    "website": null,
    "source": "openstreetmap",
    "osmId": 5927164984,
    "isPublic": true,
    "isValidated": true,
    "isFree": null,
    "pmrAccessible": false,
    "kidsFriendly": null,
    "createdAt": {
      "_seconds": 1772043590,
      "_nanoseconds": 0
    },
    "updatedAt": "2026-02-25T19:19:50.619446"
  },
  {
    "id": "osm_5927165108",
    "name": "Akeru Sushi",
    "lat": 41.9643347,
    "lng": 8.8129899,
    "location": {
      "_latitude": 41.9643347,
      "_longitude": 8.8129899
    },
    "description": "Point d'intérêt: Akeru Sushi",
    "category": "experienceGustative",
    "categoryGroup": "Experience gustative",
    "categoryItem": "restaurant",
    "city": "Corse-du-Sud",
    "departmentCode": "2A",
    "imageUrls": [],
    "images": [],
    "websiteUrl": null,
    "website": null,
    "source": "openstreetmap",
    "osmId": 5927165108,
    "isPublic": true,
    "isValidated": true,
    "isFree": null,
    "pmrAccessible": false,
    "kidsFriendly": null,
    "createdAt": {
      "_seconds": 1772043590,
      "_nanoseconds": 0
    },
    "updatedAt": "2026-02-25T19:19:50.619456"
  },
  {
    "id": "osm_5927165111",
    "name": "U Criscente",
    "lat": 41.9643258,
    "lng": 8.813333,
    "location": {
      "_latitude": 41.9643258,
      "_longitude": 8.813333
    },
    "description": "Point d'intérêt: U Criscente",
    "category": "experienceGustative",
    "categoryGroup": "Experience gustative",
    "categoryItem": "bakery",
    "city": "Corse-du-Sud",
    "departmentCode": "2A",
    "imageUrls": [],
    "images": [],
    "websiteUrl": null,
    "website": null,
    "source": "openstreetmap",
    "osmId": 5927165111,
    "isPublic": true,
    "isValidated": true,
    "isFree": null,
    "pmrAccessible": false,
    "kidsFriendly": null,
    "createdAt": {
      "_seconds": 1772043590,
      "_nanoseconds": 0
    },
    "updatedAt": "2026-02-25T19:19:50.619467"
  },
  {
    "id": "osm_5929630664",
    "name": "POI sans nom",
    "lat": 41.9808897,
    "lng": 8.7782021,
    "location": {
      "_latitude": 41.9808897,
      "_longitude": 8.7782021
    },
    "description": "Point d'intérêt: POI sans nom",
    "category": "experienceGustative",
    "categoryGroup": "Experience gustative",
    "categoryItem": "bakery",
    "city": "Corse-du-Sud",
    "departmentCode": "2A",
    "imageUrls": [],
    "images": [],
    "websiteUrl": null,
    "website": null,
    "source": "openstreetmap",
    "osmId": 5929630664,
    "isPublic": true,
    "isValidated": true,
    "isFree": null,
    "pmrAccessible": false,
    "kidsFriendly": null,
    "createdAt": {
      "_seconds": 1772043590,
      "_nanoseconds": 0
    },
    "updatedAt": "2026-02-25T19:19:50.619478"
  },
  {
    "id": "osm_6318266948",
    "name": "Le Globo",
    "lat": 41.9176875,
    "lng": 8.7354247,
    "location": {
      "_latitude": 41.9176875,
      "_longitude": 8.7354247
    },
    "description": "Point d'intérêt: Le Globo",
    "category": "experienceGustative",
    "categoryGroup": "Experience gustative",
    "categoryItem": "restaurant",
    "city": "Corse-du-Sud",
    "departmentCode": "2A",
    "imageUrls": [],
    "images": [],
    "websiteUrl": null,
    "website": null,
    "source": "openstreetmap",
    "osmId": 6318266948,
    "isPublic": true,
    "isValidated": true,
    "isFree": null,
    "pmrAccessible": true,
    "kidsFriendly": null,
    "createdAt": {
      "_seconds": 1772043590,
      "_nanoseconds": 0
    },
    "updatedAt": "2026-02-25T19:19:50.619489"
  },
  {
    "id": "osm_6462968388",
    "name": "Pizz'Alex",
    "lat": 41.916115,
    "lng": 8.7293885,
    "location": {
      "_latitude": 41.916115,
      "_longitude": 8.7293885
    },
    "description": "Point d'intérêt: Pizz'Alex",
    "category": "experienceGustative",
    "categoryGroup": "Experience gustative",
    "categoryItem": "cafe",
    "city": "Corse-du-Sud",
    "departmentCode": "2A",
    "imageUrls": [],
    "images": [],
    "websiteUrl": null,
    "website": null,
    "source": "openstreetmap",
    "osmId": 6462968388,
    "isPublic": true,
    "isValidated": true,
    "isFree": null,
    "pmrAccessible": false,
    "kidsFriendly": null,
    "createdAt": {
      "_seconds": 1772043590,
      "_nanoseconds": 0
    },
    "updatedAt": "2026-02-25T19:19:50.619500"
  },
  {
    "id": "osm_6465283190",
    "name": "Kimbo",
    "lat": 41.9175828,
    "lng": 8.7297665,
    "location": {
      "_latitude": 41.9175828,
      "_longitude": 8.7297665
    },
    "description": "Point d'intérêt: Kimbo",
    "category": "experienceGustative",
    "categoryGroup": "Experience gustative",
    "categoryItem": "cafe",
    "city": "Corse-du-Sud",
    "departmentCode": "2A",
    "imageUrls": [],
    "images": [],
    "websiteUrl": null,
    "website": null,
    "source": "openstreetmap",
    "osmId": 6465283190,
    "isPublic": true,
    "isValidated": true,
    "isFree": null,
    "pmrAccessible": false,
    "kidsFriendly": null,
    "createdAt": {
      "_seconds": 1772043590,
      "_nanoseconds": 0
    },
    "updatedAt": "2026-02-25T19:19:50.619515"
  },
  {
    "id": "osm_6466891293",
    "name": "Gelateria di Fiora",
    "lat": 41.9132061,
    "lng": 8.7251689,
    "location": {
      "_latitude": 41.9132061,
      "_longitude": 8.7251689
    },
    "description": "Point d'intérêt: Gelateria di Fiora",
    "category": "experienceGustative",
    "categoryGroup": "Experience gustative",
    "categoryItem": "cafe",
    "city": "Corse-du-Sud",
    "departmentCode": "2A",
    "imageUrls": [],
    "images": [],
    "websiteUrl": null,
    "website": null,
    "source": "openstreetmap",
    "osmId": 6466891293,
    "isPublic": true,
    "isValidated": true,
    "isFree": null,
    "pmrAccessible": false,
    "kidsFriendly": null,
    "createdAt": {
      "_seconds": 1772043590,
      "_nanoseconds": 0
    },
    "updatedAt": "2026-02-25T19:19:50.619526"
  },
  {
    "id": "osm_6466891294",
    "name": "La Bonaparte",
    "lat": 41.9132496,
    "lng": 8.7256798,
    "location": {
      "_latitude": 41.9132496,
      "_longitude": 8.7256798
    },
    "description": "Point d'intérêt: La Bonaparte",
    "category": "experienceGustative",
    "categoryGroup": "Experience gustative",
    "categoryItem": "restaurant",
    "city": "Corse-du-Sud",
    "departmentCode": "2A",
    "imageUrls": [],
    "images": [],
    "websiteUrl": null,
    "website": null,
    "source": "openstreetmap",
    "osmId": 6466891294,
    "isPublic": true,
    "isValidated": true,
    "isFree": null,
    "pmrAccessible": false,
    "kidsFriendly": null,
    "createdAt": {
      "_seconds": 1772043590,
      "_nanoseconds": 0
    },
    "updatedAt": "2026-02-25T19:19:50.619539"
  },
  {
    "id": "osm_6488880501",
    "name": "Lotus Bleu",
    "lat": 41.9178925,
    "lng": 8.7381659,
    "location": {
      "_latitude": 41.9178925,
      "_longitude": 8.7381659
    },
    "description": "Point d'intérêt: Lotus Bleu",
    "category": "experienceGustative",
    "categoryGroup": "Experience gustative",
    "categoryItem": "restaurant",
    "city": "Corse-du-Sud",
    "departmentCode": "2A",
    "imageUrls": [],
    "images": [],
    "websiteUrl": null,
    "website": null,
    "source": "openstreetmap",
    "osmId": 6488880501,
    "isPublic": true,
    "isValidated": true,
    "isFree": null,
    "pmrAccessible": false,
    "kidsFriendly": null,
    "createdAt": {
      "_seconds": 1772043590,
      "_nanoseconds": 0
    },
    "updatedAt": "2026-02-25T19:19:50.619556"
  },
  {
    "id": "osm_6574769024",
    "name": "U Listincu",
    "lat": 42.0012627,
    "lng": 8.7567881,
    "location": {
      "_latitude": 42.0012627,
      "_longitude": 8.7567881
    },
    "description": "Point d'intérêt: U Listincu",
    "category": "experienceGustative",
    "categoryGroup": "Experience gustative",
    "categoryItem": "restaurant",
    "city": "Corse-du-Sud",
    "departmentCode": "2A",
    "imageUrls": [],
    "images": [],
    "websiteUrl": null,
    "website": null,
    "source": "openstreetmap",
    "osmId": 6574769024,
    "isPublic": true,
    "isValidated": true,
    "isFree": null,
    "pmrAccessible": false,
    "kidsFriendly": null,
    "createdAt": {
      "_seconds": 1772043590,
      "_nanoseconds": 0
    },
    "updatedAt": "2026-02-25T19:19:50.619567"
  },
  {
    "id": "osm_6578352887",
    "name": "spaghetti 3",
    "lat": 41.923837,
    "lng": 8.7384038,
    "location": {
      "_latitude": 41.923837,
      "_longitude": 8.7384038
    },
    "description": "Point d'intérêt: spaghetti 3",
    "category": "experienceGustative",
    "categoryGroup": "Experience gustative",
    "categoryItem": "restaurant",
    "city": "Corse-du-Sud",
    "departmentCode": "2A",
    "imageUrls": [],
    "images": [],
    "websiteUrl": null,
    "website": null,
    "source": "openstreetmap",
    "osmId": 6578352887,
    "isPublic": true,
    "isValidated": true,
    "isFree": null,
    "pmrAccessible": false,
    "kidsFriendly": null,
    "createdAt": {
      "_seconds": 1772043590,
      "_nanoseconds": 0
    },
    "updatedAt": "2026-02-25T19:19:50.619577"
  },
  {
    "id": "osm_6578352889",
    "name": "Le Paparazzi",
    "lat": 41.9292285,
    "lng": 8.7404819,
    "location": {
      "_latitude": 41.9292285,
      "_longitude": 8.7404819
    },
    "description": "Point d'intérêt: Le Paparazzi",
    "category": "experienceGustative",
    "categoryGroup": "Experience gustative",
    "categoryItem": "restaurant",
    "city": "Corse-du-Sud",
    "departmentCode": "2A",
    "imageUrls": [],
    "images": [],
    "websiteUrl": null,
    "website": null,
    "source": "openstreetmap",
    "osmId": 6578352889,
    "isPublic": true,
    "isValidated": true,
    "isFree": null,
    "pmrAccessible": false,
    "kidsFriendly": null,
    "createdAt": {
      "_seconds": 1772043590,
      "_nanoseconds": 0
    },
    "updatedAt": "2026-02-25T19:19:50.619587"
  },
  {
    "id": "osm_6578352988",
    "name": "via Roma",
    "lat": 41.917749,
    "lng": 8.7379933,
    "location": {
      "_latitude": 41.917749,
      "_longitude": 8.7379933
    },
    "description": "Point d'intérêt: via Roma",
    "category": "experienceGustative",
    "categoryGroup": "Experience gustative",
    "categoryItem": "restaurant",
    "city": "Corse-du-Sud",
    "departmentCode": "2A",
    "imageUrls": [],
    "images": [],
    "websiteUrl": null,
    "website": null,
    "source": "openstreetmap",
    "osmId": 6578352988,
    "isPublic": true,
    "isValidated": true,
    "isFree": null,
    "pmrAccessible": false,
    "kidsFriendly": null,
    "createdAt": {
      "_seconds": 1772043590,
      "_nanoseconds": 0
    },
    "updatedAt": "2026-02-25T19:19:50.619598"
  },
  {
    "id": "osm_6578352989",
    "name": "bel meserre",
    "lat": 41.9190673,
    "lng": 8.7360173,
    "location": {
      "_latitude": 41.9190673,
      "_longitude": 8.7360173
    },
    "description": "Point d'intérêt: bel meserre",
    "category": "experienceGustative",
    "categoryGroup": "Experience gustative",
    "categoryItem": "restaurant",
    "city": "Corse-du-Sud",
    "departmentCode": "2A",
    "imageUrls": [],
    "images": [],
    "websiteUrl": null,
    "website": null,
    "source": "openstreetmap",
    "osmId": 6578352989,
    "isPublic": true,
    "isValidated": true,
    "isFree": null,
    "pmrAccessible": false,
    "kidsFriendly": null,
    "createdAt": {
      "_seconds": 1772043590,
      "_nanoseconds": 0
    },
    "updatedAt": "2026-02-25T19:19:50.619609"
  },
  {
    "id": "osm_6578352990",
    "name": "Le Bistrot Gourmand",
    "lat": 41.9138563,
    "lng": 8.7266019,
    "location": {
      "_latitude": 41.9138563,
      "_longitude": 8.7266019
    },
    "description": "Point d'intérêt: Le Bistrot Gourmand",
    "category": "experienceGustative",
    "categoryGroup": "Experience gustative",
    "categoryItem": "restaurant",
    "city": "Corse-du-Sud",
    "departmentCode": "2A",
    "imageUrls": [],
    "images": [],
    "websiteUrl": null,
    "website": null,
    "source": "openstreetmap",
    "osmId": 6578352990,
    "isPublic": true,
    "isValidated": true,
    "isFree": null,
    "pmrAccessible": false,
    "kidsFriendly": null,
    "createdAt": {
      "_seconds": 1772043590,
      "_nanoseconds": 0
    },
    "updatedAt": "2026-02-25T19:19:50.619619"
  },
  {
    "id": "osm_6578352991",
    "name": "Le Bosco",
    "lat": 41.918135,
    "lng": 8.7380715,
    "location": {
      "_latitude": 41.918135,
      "_longitude": 8.7380715
    },
    "description": "Point d'intérêt: Le Bosco",
    "category": "experienceGustative",
    "categoryGroup": "Experience gustative",
    "categoryItem": "restaurant",
    "city": "Corse-du-Sud",
    "departmentCode": "2A",
    "imageUrls": [],
    "images": [],
    "websiteUrl": null,
    "website": null,
    "source": "openstreetmap",
    "osmId": 6578352991,
    "isPublic": true,
    "isValidated": true,
    "isFree": null,
    "pmrAccessible": false,
    "kidsFriendly": null,
    "createdAt": {
      "_seconds": 1772043590,
      "_nanoseconds": 0
    },
    "updatedAt": "2026-02-25T19:19:50.619630"
  },
  {
    "id": "osm_6578352992",
    "name": "bilboq chez jean jean",
    "lat": 41.9185627,
    "lng": 8.7388455,
    "location": {
      "_latitude": 41.9185627,
      "_longitude": 8.7388455
    },
    "description": "Point d'intérêt: bilboq chez jean jean",
    "category": "experienceGustative",
    "categoryGroup": "Experience gustative",
    "categoryItem": "restaurant",
    "city": "Corse-du-Sud",
    "departmentCode": "2A",
    "imageUrls": [],
    "images": [],
    "websiteUrl": null,
    "website": null,
    "source": "openstreetmap",
    "osmId": 6578352992,
    "isPublic": true,
    "isValidated": true,
    "isFree": null,
    "pmrAccessible": false,
    "kidsFriendly": null,
    "createdAt": {
      "_seconds": 1772043590,
      "_nanoseconds": 0
    },
    "updatedAt": "2026-02-25T19:19:50.619645"
  },
  {
    "id": "osm_6578352993",
    "name": "côté port",
    "lat": 41.9290529,
    "lng": 8.7404774,
    "location": {
      "_latitude": 41.9290529,
      "_longitude": 8.7404774
    },
    "description": "Point d'intérêt: côté port",
    "category": "experienceGustative",
    "categoryGroup": "Experience gustative",
    "categoryItem": "restaurant",
    "city": "Corse-du-Sud",
    "departmentCode": "2A",
    "imageUrls": [],
    "images": [],
    "websiteUrl": null,
    "website": null,
    "source": "openstreetmap",
    "osmId": 6578352993,
    "isPublic": true,
    "isValidated": true,
    "isFree": null,
    "pmrAccessible": false,
    "kidsFriendly": null,
    "createdAt": {
      "_seconds": 1772043590,
      "_nanoseconds": 0
    },
    "updatedAt": "2026-02-25T19:19:50.619656"
  },
  {
    "id": "osm_6578353097",
    "name": "Le Cabanon",
    "lat": 41.9176386,
    "lng": 8.7398569,
    "location": {
      "_latitude": 41.9176386,
      "_longitude": 8.7398569
    },
    "description": "Point d'intérêt: Le Cabanon",
    "category": "experienceGustative",
    "categoryGroup": "Experience gustative",
    "categoryItem": "restaurant",
    "city": "Corse-du-Sud",
    "departmentCode": "2A",
    "imageUrls": [],
    "images": [],
    "websiteUrl": null,
    "website": null,
    "source": "openstreetmap",
    "osmId": 6578353097,
    "isPublic": true,
    "isValidated": true,
    "isFree": null,
    "pmrAccessible": false,
    "kidsFriendly": null,
    "createdAt": {
      "_seconds": 1772043590,
      "_nanoseconds": 0
    },
    "updatedAt": "2026-02-25T19:19:50.619666"
  },
  {
    "id": "osm_6578353585",
    "name": "A Cantina Di Ghjulia",
    "lat": 41.9176721,
    "lng": 8.7375467,
    "location": {
      "_latitude": 41.9176721,
      "_longitude": 8.7375467
    },
    "description": "Point d'intérêt: A Cantina Di Ghjulia",
    "category": "experienceGustative",
    "categoryGroup": "Experience gustative",
    "categoryItem": "restaurant",
    "city": "Corse-du-Sud",
    "departmentCode": "2A",
    "imageUrls": [],
    "images": [],
    "websiteUrl": null,
    "website": null,
    "source": "openstreetmap",
    "osmId": 6578353585,
    "isPublic": true,
    "isValidated": true,
    "isFree": null,
    "pmrAccessible": false,
    "kidsFriendly": null,
    "createdAt": {
      "_seconds": 1772043590,
      "_nanoseconds": 0
    },
    "updatedAt": "2026-02-25T19:19:50.619677"
  },
  {
    "id": "osm_6814361940",
    "name": "POI sans nom",
    "lat": 41.9839564,
    "lng": 8.6706671,
    "location": {
      "_latitude": 41.9839564,
      "_longitude": 8.6706671
    },
    "description": "Point d'intérêt: POI sans nom",
    "category": "experienceGustative",
    "categoryGroup": "Experience gustative",
    "categoryItem": "restaurant",
    "city": "Corse-du-Sud",
    "departmentCode": "2A",
    "imageUrls": [],
    "images": [],
    "websiteUrl": null,
    "website": null,
    "source": "openstreetmap",
    "osmId": 6814361940,
    "isPublic": true,
    "isValidated": true,
    "isFree": null,
    "pmrAccessible": false,
    "kidsFriendly": null,
    "createdAt": {
      "_seconds": 1772043590,
      "_nanoseconds": 0
    },
    "updatedAt": "2026-02-25T19:19:50.619712"
  },