[
  {
    "id": "osm_1597759093",
    "name": "Théâtre",
    "lat": 46.2064868,
    "lng": 5.2255336,
    "location": {
      "_latitude": 46.2064868,
      "_longitude": 5.2255336
    },
    "description": "Point d'intérêt: Théâtre",
    "category": "culture",
    "categoryGroup": "Culture",
    "categoryItem": "theatre",
    "city": "Ain",
    "departmentCode": "01",
    "imageUrls": [
      "https://www.wikidata.org/wiki/Q3527617"
    ],
    "images": [
      "https://www.wikidata.org/wiki/Q3527617"
    ],
    "websiteUrl": null,
    "website": null,
    "source": "openstreetmap",
    "osmId": 1597759093,
    "isPublic": true,
    "isValidated": true,
    "isFree": null,
    "pmrAccessible": false,
    "kidsFriendly": null,
    "createdAt": {
      "_seconds": 1771957554,
      "_nanoseconds": 0
    },
    "updatedAt": "2026-02-24T19:25:54.454868"
  },
  {
    "id": "osm_1597760569",
    "name": "La Grenette",
    "lat": 46.2064417,
    "lng": 5.2251452,
    "location": {
      "_latitude": 46.2064417,
      "_longitude": 5.2251452
    },
    "description": "Point d'intérêt: La Grenette",
    "category": "culture",
    "categoryGroup": "Culture",
    "categoryItem": "cinema",
    "city": "Ain",
    "departmentCode": "01",
    "imageUrls": [
      "https://www.wikidata.org/wiki/Q61859469"
    ],
    "images": [
      "https://www.wikidata.org/wiki/Q61859469"
    ],
    "websiteUrl": "https://www.cinemateur01.com",
    "website": "https://www.cinemateur01.com",
    "source": "openstreetmap",
    "osmId": 1597760569,
    "isPublic": true,
    "isValidated": true,
    "isFree": null,
    "pmrAccessible": false,
    "kidsFriendly": null,
    "createdAt": {
      "_seconds": 1771957554,
      "_nanoseconds": 0
    },
    "updatedAt": "2026-02-24T19:25:54.454882"
  },
  {
    "id": "osm_2427436141",
    "name": "Apothicairerie de l'hôtel-Dieu",
    "lat": 46.2008403,
    "lng": 5.233557,
    "location": {
      "_latitude": 46.2008403,
      "_longitude": 5.233557
    },
    "description": "Point d'intérêt: Apothicairerie de l'hôtel-Dieu",
    "category": "culture",
    "categoryGroup": "Culture",
    "categoryItem": "museum",
    "city": "Ain",
    "departmentCode": "01",
    "imageUrls": [
      "https://www.wikidata.org/wiki/Q16010419"
    ],
    "images": [
      "https://www.wikidata.org/wiki/Q16010419"
    ],
    "websiteUrl": "https://www.bourgenbressedestinations.fr/explorer/bourg-en-bresse-lesprit-citadin/se-laisser-seduireun-heritage-riche/apothicairerie-pharmacie-depoque-aux-milles-secrets/",
    "website": "https://www.bourgenbressedestinations.fr/explorer/bourg-en-bresse-lesprit-citadin/se-laisser-seduireun-heritage-riche/apothicairerie-pharmacie-depoque-aux-milles-secrets/",
    "source": "openstreetmap",
    "osmId": 2427436141,
    "isPublic": true,
    "isValidated": true,
    "isFree": null,
    "pmrAccessible": false,
    "kidsFriendly": null,
    "createdAt": {
      "_seconds": 1771957554,
      "_nanoseconds": 0
    },
    "updatedAt": "2026-02-24T19:25:54.454889"
  },
  {
    "id": "osm_2939702701",
    "name": "De l'en-dessous",
    "lat": 46.1978834,
    "lng": 5.2372205,
    "location": {
      "_latitude": 46.1978834,
      "_longitude": 5.2372205
    },
    "description": "Point d'intérêt: De l'en-dessous",
    "category": "culture",
    "categoryGroup": "Culture",
    "categoryItem": "artwork",
    "city": "Ain",
    "departmentCode": "01",
    "imageUrls": [
      "https://www.wikidata.org/wiki/Q17347007"
    ],
    "images": [
      "https://www.wikidata.org/wiki/Q17347007"
    ],
    "websiteUrl": null,
    "website": null,
    "source": "openstreetmap",
    "osmId": 2939702701,
    "isPublic": true,
    "isValidated": true,
    "isFree": null,
    "pmrAccessible": false,
    "kidsFriendly": null,
    "createdAt": {
      "_seconds": 1771957554,
      "_nanoseconds": 0
    },
    "updatedAt": "2026-02-24T19:25:54.454894"
  },
  {
    "id": "osm_2939702703",
    "name": "Philibert et Marguerite",
    "lat": 46.1972703,
    "lng": 5.2361455,
    "location": {
      "_latitude": 46.1972703,
      "_longitude": 5.2361455
    },
    "description": "Point d'intérêt: Philibert et Marguerite",
    "category": "culture",
    "categoryGroup": "Culture",
    "categoryItem": "artwork",
    "city": "Ain",
    "departmentCode": "01",
    "imageUrls": [
      "https://www.wikidata.org/wiki/Q17370280"
    ],
    "images": [
      "https://www.wikidata.org/wiki/Q17370280"
    ],
    "websiteUrl": null,
    "website": null,
    "source": "openstreetmap",
    "osmId": 2939702703,
    "isPublic": true,
    "isValidated": true,
    "isFree": null,
    "pmrAccessible": false,
    "kidsFriendly": null,
    "createdAt": {
      "_seconds": 1771957554,
      "_nanoseconds": 0
    },
    "updatedAt": "2026-02-24T19:25:54.454900"
  },
  {
    "id": "osm_2939702704",
    "name": "POI sans nom",
    "lat": 46.1975316,
    "lng": 5.2368646,
    "location": {
      "_latitude": 46.1975316,
      "_longitude": 5.2368646
    },
    "description": "Point d'intérêt: POI sans nom",
    "category": "culture",
    "categoryGroup": "Culture",
    "categoryItem": "artwork",
    "city": "Ain",
    "departmentCode": "01",
    "imageUrls": [
      "https://www.wikidata.org/wiki/Q17347210"
    ],
    "images": [
      "https://www.wikidata.org/wiki/Q17347210"
    ],
    "websiteUrl": null,
    "website": null,
    "source": "openstreetmap",
    "osmId": 2939702704,
    "isPublic": true,
    "isValidated": true,
    "isFree": null,
    "pmrAccessible": false,
    "kidsFriendly": null,
    "createdAt": {
      "_seconds": 1771957554,
      "_nanoseconds": 0
    },
    "updatedAt": "2026-02-24T19:25:54.454905"
  },
  {
    "id": "osm_2956956512",
    "name": "Monument à Edgar Quinet",
    "lat": 46.2032026,
    "lng": 5.2204079,
    "location": {
      "_latitude": 46.2032026,
      "_longitude": 5.2204079
    },
    "description": "Point d'intérêt: Monument à Edgar Quinet",
    "category": "culture",
    "categoryGroup": "Culture",
    "categoryItem": "artwork",
    "city": "Ain",
    "departmentCode": "01",
    "imageUrls": [
      "https://commons.wikimedia.org/wiki/File:Monument_%C3%A0_Edgar_Quinet_%C3%A0_Bourg-en-Bresse.jpg",
      "https://www.wikidata.org/wiki/Q17334600"
    ],
    "images": [
      "https://commons.wikimedia.org/wiki/File:Monument_%C3%A0_Edgar_Quinet_%C3%A0_Bourg-en-Bresse.jpg",
      "https://www.wikidata.org/wiki/Q17334600"
    ],
    "websiteUrl": null,
    "website": null,
    "source": "openstreetmap",
    "osmId": 2956956512,
    "isPublic": true,
    "isValidated": true,
    "isFree": null,
    "pmrAccessible": false,
    "kidsFriendly": null,
    "createdAt": {
      "_seconds": 1771957554,
      "_nanoseconds": 0
    },
    "updatedAt": "2026-02-24T19:25:54.454911"
  },
  {
    "id": "osm_4388857090",
    "name": "Escalier Ferronnerie 18e siècle",
    "lat": 46.2043208,
    "lng": 5.2275932,
    "location": {
      "_latitude": 46.2043208,
      "_longitude": 5.2275932
    },
    "description": "Point d'intérêt: Escalier Ferronnerie 18e siècle",
    "category": "culture",
    "categoryGroup": "Culture",
    "categoryItem": "artwork",
    "city": "Ain",
    "departmentCode": "01",
    "imageUrls": [
      "https://www.wikidata.org/wiki/Q22966693"
    ],
    "images": [
      "https://www.wikidata.org/wiki/Q22966693"
    ],
    "websiteUrl": null,
    "website": null,
    "source": "openstreetmap",
    "osmId": 4388857090,
    "isPublic": true,
    "isValidated": true,
    "isFree": null,
    "pmrAccessible": false,
    "kidsFriendly": null,
    "createdAt": {
      "_seconds": 1771957554,
      "_nanoseconds": 0
    },
    "updatedAt": "2026-02-24T19:25:54.454916"
  },
  {
    "id": "osm_5195110240",
    "name": "Le retour du grand-père",
    "lat": 46.2058186,
    "lng": 5.219626,
    "location": {
      "_latitude": 46.2058186,
      "_longitude": 5.219626
    },
    "description": "Point d'intérêt: Le retour du grand-père",
    "category": "culture",
    "categoryGroup": "Culture",
    "categoryItem": "artwork",
    "city": "Ain",
    "departmentCode": "01",
    "imageUrls": [],
    "images": [],
    "websiteUrl": null,
    "website": null,
    "source": "openstreetmap",
    "osmId": 5195110240,
    "isPublic": true,
    "isValidated": true,
    "isFree": null,
    "pmrAccessible": false,
    "kidsFriendly": null,
    "createdAt": {
      "_seconds": 1771957554,
      "_nanoseconds": 0
    },
    "updatedAt": "2026-02-24T19:25:54.454920"
  },
  {
    "id": "osm_6477303355",
    "name": "Edgar Quinet",
    "lat": 46.197574,
    "lng": 5.2274356,
    "location": {
      "_latitude": 46.197574,
      "_longitude": 5.2274356
    },
    "description": "Point d'intérêt: Edgar Quinet",
    "category": "culture",
    "categoryGroup": "Culture",
    "categoryItem": "artwork",
    "city": "Ain",
    "departmentCode": "01",
    "imageUrls": [
      "https://www.flickr.com/photos/agamitsudo/52636765036"
    ],
    "images": [
      "https://www.flickr.com/photos/agamitsudo/52636765036"
    ],
    "websiteUrl": null,
    "website": null,
    "source": "openstreetmap",
    "osmId": 6477303355,
    "isPublic": true,
    "isValidated": true,
    "isFree": null,
    "pmrAccessible": false,
    "kidsFriendly": null,
    "createdAt": {
      "_seconds": 1771957554,
      "_nanoseconds": 0
    },
    "updatedAt": "2026-02-24T19:25:54.454925"
  },
  {
    "id": "osm_7235025915",
    "name": "Théâtre de Poche",
    "lat": 46.1979421,
    "lng": 5.2186158,
    "location": {
      "_latitude": 46.1979421,
      "_longitude": 5.2186158
    },
    "description": "Point d'intérêt: Théâtre de Poche",
    "category": "culture",
    "categoryGroup": "Culture",
    "categoryItem": "theatre",
    "city": "Ain",
    "departmentCode": "01",
    "imageUrls": [],
    "images": [],
    "websiteUrl": null,
    "website": null,
    "source": "openstreetmap",
    "osmId": 7235025915,
    "isPublic": true,
    "isValidated": true,
    "isFree": null,
    "pmrAccessible": false,
    "kidsFriendly": null,
    "createdAt": {
      "_seconds": 1771957554,
      "_nanoseconds": 0
    },
    "updatedAt": "2026-02-24T19:25:54.454929"
  },
  {
    "id": "osm_9187276302",
    "name": "POI sans nom",
    "lat": 46.2116449,
    "lng": 5.2247678,
    "location": {
      "_latitude": 46.2116449,
      "_longitude": 5.2247678
    },
    "description": "Point d'intérêt: POI sans nom",
    "category": "culture",
    "categoryGroup": "Culture",
    "categoryItem": "artwork",
    "city": "Ain",
    "departmentCode": "01",
    "imageUrls": [],
    "images": [],
    "websiteUrl": null,
    "website": null,
    "source": "openstreetmap",
    "osmId": 9187276302,
    "isPublic": true,
    "isValidated": true,
    "isFree": null,
    "pmrAccessible": false,
    "kidsFriendly": null,
    "createdAt": {
      "_seconds": 1771957554,
      "_nanoseconds": 0
    },
    "updatedAt": "2026-02-24T19:25:54.454933"
  },
  {
    "id": "osm_9330486841",
    "name": "Statue de la Vierge",
    "lat": 46.1943065,
    "lng": 5.2218883,
    "location": {
      "_latitude": 46.1943065,
      "_longitude": 5.2218883
    },
    "description": "Point d'intérêt: Statue de la Vierge",
    "category": "culture",
    "categoryGroup": "Culture",
    "categoryItem": "artwork",
    "city": "Ain",
    "departmentCode": "01",
    "imageUrls": [
      "https://commons.wikimedia.org/wiki/Special:FilePath/Statue_de_la_Vierge_(Maison_Jean-Marie_Vianney,_Bourg-en-Bresse).JPG"
    ],
    "images": [
      "https://commons.wikimedia.org/wiki/Special:FilePath/Statue_de_la_Vierge_(Maison_Jean-Marie_Vianney,_Bourg-en-Bresse).JPG"
    ],
    "websiteUrl": null,
    "website": null,
    "source": "openstreetmap",
    "osmId": 9330486841,
    "isPublic": true,
    "isValidated": true,
    "isFree": null,
    "pmrAccessible": false,
    "kidsFriendly": null,
    "createdAt": {
      "_seconds": 1771957554,
      "_nanoseconds": 0
    },
    "updatedAt": "2026-02-24T19:25:54.454939"
  },
  {
    "id": "osm_9861826808",
    "name": "POI sans nom",
    "lat": 46.2053688,
    "lng": 5.2198526,
    "location": {
      "_latitude": 46.2053688,
      "_longitude": 5.2198526
    },
    "description": "Point d'intérêt: POI sans nom",
    "category": "culture",
    "categoryGroup": "Culture",
    "categoryItem": "artwork",
    "city": "Ain",
    "departmentCode": "01",
    "imageUrls": [],
    "images": [],
    "websiteUrl": null,
    "website": null,
    "source": "openstreetmap",
    "osmId": 9861826808,
    "isPublic": true,
    "isValidated": true,
    "isFree": null,
    "pmrAccessible": false,
    "kidsFriendly": null,
    "createdAt": {
      "_seconds": 1771957554,
      "_nanoseconds": 0
    },
    "updatedAt": "2026-02-24T19:25:54.454943"
  },
  {
    "id": "osm_9861902131",
    "name": "POI sans nom",
    "lat": 46.2055583,
    "lng": 5.220381,
    "location": {
      "_latitude": 46.2055583,
      "_longitude": 5.220381
    },
    "description": "Point d'intérêt: POI sans nom",
    "category": "culture",
    "categoryGroup": "Culture",
    "categoryItem": "artwork",
    "city": "Ain",
    "departmentCode": "01",
    "imageUrls": [],
    "images": [],
    "websiteUrl": null,
    "website": null,
    "source": "openstreetmap",
    "osmId": 9861902131,
    "isPublic": true,
    "isValidated": true,
    "isFree": null,
    "pmrAccessible": false,
    "kidsFriendly": null,
    "createdAt": {
      "_seconds": 1771957554,
      "_nanoseconds": 0
    },
    "updatedAt": "2026-02-24T19:25:54.454949"
  },
  {
    "id": "osm_9996540275",
    "name": "POI sans nom",
    "lat": 46.1943302,
    "lng": 5.2235761,
    "location": {
      "_latitude": 46.1943302,
      "_longitude": 5.2235761
    },
    "description": "Chouette en métal, date 01 01 1993 artiste illisible",
    "category": "culture",
    "categoryGroup": "Culture",
    "categoryItem": "artwork",
    "city": "Ain",
    "departmentCode": "01",
    "imageUrls": [],
    "images": [],
    "websiteUrl": null,
    "website": null,
    "source": "openstreetmap",
    "osmId": 9996540275,
    "isPublic": true,
    "isValidated": true,
    "isFree": null,
    "pmrAccessible": false,
    "kidsFriendly": null,
    "createdAt": {
      "_seconds": 1771957554,
      "_nanoseconds": 0
    },
    "updatedAt": "2026-02-24T19:25:54.454953"
  },
  {
    "id": "osm_10006914581",
    "name": "Confrontation",
    "lat": 46.2123147,
    "lng": 5.2238878,
    "location": {
      "_latitude": 46.2123147,
      "_longitude": 5.2238878
    },
    "description": "Point d'intérêt: Confrontation",
    "category": "culture",
    "categoryGroup": "Culture",
    "categoryItem": "artwork",
    "city": "Ain",
    "departmentCode": "01",
    "imageUrls": [],
    "images": [],
    "websiteUrl": null,
    "website": null,
    "source": "openstreetmap",
    "osmId": 10006914581,
    "isPublic": true,
    "isValidated": true,
    "isFree": null,
    "pmrAccessible": false,
    "kidsFriendly": null,
    "createdAt": {
      "_seconds": 1771957554,
      "_nanoseconds": 0
    },
    "updatedAt": "2026-02-24T19:25:54.454957"
  },
  {
    "id": "osm_10015405930",
    "name": "POI sans nom",
    "lat": 46.2181313,
    "lng": 5.3679712,
    "location": {
      "_latitude": 46.2181313,
      "_longitude": 5.3679712
    },
    "description": "Point d'intérêt: POI sans nom",
    "category": "culture",
    "categoryGroup": "Culture",
    "categoryItem": "artwork",
    "city": "Ain",
    "departmentCode": "01",
    "imageUrls": [],
    "images": [],
    "websiteUrl": null,
    "website": null,
    "source": "openstreetmap",
    "osmId": 10015405930,
    "isPublic": true,
    "isValidated": true,
    "isFree": null,
    "pmrAccessible": false,
    "kidsFriendly": null,
    "createdAt": {
      "_seconds": 1771957554,
      "_nanoseconds": 0
    },
    "updatedAt": "2026-02-24T19:25:54.454961"
  },
  {
    "id": "osm_10070021597",
    "name": "Thémis",
    "lat": 46.2053832,
    "lng": 5.2237451,
    "location": {
      "_latitude": 46.2053832,
      "_longitude": 5.2237451
    },
    "description": "Point d'intérêt: Thémis",
    "category": "culture",
    "categoryGroup": "Culture",
    "categoryItem": "artwork",
    "city": "Ain",
    "departmentCode": "01",
    "imageUrls": [],
    "images": [],
    "websiteUrl": null,
    "website": null,
    "source": "openstreetmap",
    "osmId": 10070021597,
    "isPublic": true,
    "isValidated": true,
    "isFree": null,
    "pmrAccessible": false,
    "kidsFriendly": null,
    "createdAt": {
      "_seconds": 1771957554,
      "_nanoseconds": 0
    },
    "updatedAt": "2026-02-24T19:25:54.454965"
  },
  {
    "id": "osm_10120304801",
    "name": "POI sans nom",
    "lat": 46.2038618,
    "lng": 5.218676,
    "location": {
      "_latitude": 46.2038618,
      "_longitude": 5.218676
    },
    "description": "Point d'intérêt: POI sans nom",
    "category": "culture",
    "categoryGroup": "Culture",
    "categoryItem": "artwork",
    "city": "Ain",
    "departmentCode": "01",
    "imageUrls": [],
    "images": [],
    "websiteUrl": null,
    "website": null,
    "source": "openstreetmap",
    "osmId": 10120304801,
    "isPublic": true,
    "isValidated": true,
    "isFree": null,
    "pmrAccessible": false,
    "kidsFriendly": null,
    "createdAt": {
      "_seconds": 1771957554,
      "_nanoseconds": 0
    },
    "updatedAt": "2026-02-24T19:25:54.454969"
  },
  {
    "id": "osm_10125415485",
    "name": "POI sans nom",
    "lat": 46.2111592,
    "lng": 5.2340596,
    "location": {
      "_latitude": 46.2111592,
      "_longitude": 5.2340596
    },
    "description": "Point d'intérêt: POI sans nom",
    "category": "culture",
    "categoryGroup": "Culture",
    "categoryItem": "artwork",
    "city": "Ain",
    "departmentCode": "01",
    "imageUrls": [],
    "images": [],
    "websiteUrl": null,
    "website": null,
    "source": "openstreetmap",
    "osmId": 10125415485,
    "isPublic": true,
    "isValidated": true,
    "isFree": null,
    "pmrAccessible": false,
    "kidsFriendly": null,
    "createdAt": {
      "_seconds": 1771957554,
      "_nanoseconds": 0
    },
    "updatedAt": "2026-02-24T19:25:54.454972"
  },
  {
    "id": "osm_10137248728",
    "name": "Nodulus 5",
    "lat": 46.1833619,
    "lng": 5.2578341,
    "location": {
      "_latitude": 46.1833619,
      "_longitude": 5.2578341
    },
    "description": "Point d'intérêt: Nodulus 5",
    "category": "culture",
    "categoryGroup": "Culture",
    "categoryItem": "artwork",
    "city": "Ain",
    "departmentCode": "01",
    "imageUrls": [],
    "images": [],
    "websiteUrl": null,
    "website": null,
    "source": "openstreetmap",
    "osmId": 10137248728,
    "isPublic": true,
    "isValidated": true,
    "isFree": null,
    "pmrAccessible": false,
    "kidsFriendly": null,
    "createdAt": {
      "_seconds": 1771957554,
      "_nanoseconds": 0
    },
    "updatedAt": "2026-02-24T19:25:54.454976"
  },
  {
    "id": "osm_10153995448",
    "name": "POI sans nom",
    "lat": 46.183789,
    "lng": 5.2569112,
    "location": {
      "_latitude": 46.183789,
      "_longitude": 5.2569112
    },
    "description": "Point d'intérêt: POI sans nom",
    "category": "culture",
    "categoryGroup": "Culture",
    "categoryItem": "artwork",
    "city": "Ain",
    "departmentCode": "01",
    "imageUrls": [],
    "images": [],
    "websiteUrl": null,
    "website": null,
    "source": "openstreetmap",
    "osmId": 10153995448,
    "isPublic": true,
    "isValidated": true,
    "isFree": null,
    "pmrAccessible": false,
    "kidsFriendly": null,
    "createdAt": {
      "_seconds": 1771957554,
      "_nanoseconds": 0
    },
    "updatedAt": "2026-02-24T19:25:54.454980"
  },
  {
    "id": "osm_10153995449",
    "name": "POI sans nom",
    "lat": 46.1830716,
    "lng": 5.2579242,
    "location": {
      "_latitude": 46.1830716,
      "_longitude": 5.2579242
    },
    "description": "Point d'intérêt: POI sans nom",
    "category": "culture",
    "categoryGroup": "Culture",
    "categoryItem": "artwork",
    "city": "Ain",
    "departmentCode": "01",
    "imageUrls": [],
    "images": [],
    "websiteUrl": null,
    "website": null,
    "source": "openstreetmap",
    "osmId": 10153995449,
    "isPublic": true,
    "isValidated": true,
    "isFree": null,
    "pmrAccessible": false,
    "kidsFriendly": null,
    "createdAt": {
      "_seconds": 1771957554,
      "_nanoseconds": 0
    },
    "updatedAt": "2026-02-24T19:25:54.454983"
  },
  {
    "id": "osm_10219620844",
    "name": "Amphitorium",
    "lat": 46.206655,
    "lng": 5.2268202,
    "location": {
      "_latitude": 46.206655,
      "_longitude": 5.2268202
    },
    "description": "Point d'intérêt: Amphitorium",
    "category": "culture",
    "categoryGroup": "Culture",
    "categoryItem": "theatre",
    "city": "Ain",
    "departmentCode": "01",
    "imageUrls": [],
    "images": [],
    "websiteUrl": null,
    "website": null,
    "source": "openstreetmap",
    "osmId": 10219620844,
    "isPublic": true,
    "isValidated": true,
    "isFree": null,
    "pmrAccessible": false,
    "kidsFriendly": null,
    "createdAt": {
      "_seconds": 1771957554,
      "_nanoseconds": 0
    },
    "updatedAt": "2026-02-24T19:25:54.454987"
  },
  {
    "id": "osm_10302774120",
    "name": "Vierge Marie",
    "lat": 46.1768517,
    "lng": 5.3243802,
    "location": {
      "_latitude": 46.1768517,
      "_longitude": 5.3243802
    },
    "description": "Point d'intérêt: Vierge Marie",
    "category": "culture",
    "categoryGroup": "Culture",
    "categoryItem": "artwork",
    "city": "Ain",
    "departmentCode": "01",
    "imageUrls": [],
    "images": [],
    "websiteUrl": null,
    "website": null,
    "source": "openstreetmap",
    "osmId": 10302774120,
    "isPublic": true,
    "isValidated": true,
    "isFree": null,
    "pmrAccessible": false,
    "kidsFriendly": null,
    "createdAt": {
      "_seconds": 1771957554,
      "_nanoseconds": 0
    },
    "updatedAt": "2026-02-24T19:25:54.454991"
  },
  {
    "id": "osm_10624203583",
    "name": "Station mariale",
    "lat": 46.1306125,
    "lng": 5.2656084,
    "location": {
      "_latitude": 46.1306125,
      "_longitude": 5.2656084
    },
    "description": "Point d'intérêt: Station mariale",
    "category": "culture",
    "categoryGroup": "Culture",
    "categoryItem": "artwork",
    "city": "Ain",
    "departmentCode": "01",
    "imageUrls": [],
    "images": [],
    "websiteUrl": null,
    "website": null,
    "source": "openstreetmap",
    "osmId": 10624203583,
    "isPublic": true,
    "isValidated": true,
    "isFree": null,
    "pmrAccessible": false,
    "kidsFriendly": null,
    "createdAt": {
      "_seconds": 1771957554,
      "_nanoseconds": 0
    },
    "updatedAt": "2026-02-24T19:25:54.454996"
  },
  {
    "id": "osm_10756182615",
    "name": "L'Arbre de la paix",
    "lat": 46.2130938,
    "lng": 5.2342436,
    "location": {
      "_latitude": 46.2130938,
      "_longitude": 5.2342436
    },
    "description": "Point d'intérêt: L'Arbre de la paix",
    "category": "culture",
    "categoryGroup": "Culture",
    "categoryItem": "artwork",
    "city": "Ain",
    "departmentCode": "01",
    "imageUrls": [],
    "images": [],
    "websiteUrl": null,
    "website": null,
    "source": "openstreetmap",
    "osmId": 10756182615,
    "isPublic": true,
    "isValidated": true,
    "isFree": null,
    "pmrAccessible": false,
    "kidsFriendly": null,
    "createdAt": {
      "_seconds": 1771957554,
      "_nanoseconds": 0
    },
    "updatedAt": "2026-02-24T19:25:54.455000"
  },
  {
    "id": "osm_10801060035",
    "name": "POI sans nom",
    "lat": 46.2039876,
    "lng": 5.2235156,
    "location": {
      "_latitude": 46.2039876,
      "_longitude": 5.2235156
    },
    "description": "Point d'intérêt: POI sans nom",
    "category": "culture",
    "categoryGroup": "Culture",
    "categoryItem": "artwork",
    "city": "Ain",
    "departmentCode": "01",
    "imageUrls": [],
    "images": [],
    "websiteUrl": null,
    "website": null,
    "source": "openstreetmap",
    "osmId": 10801060035,
    "isPublic": true,
    "isValidated": true,
    "isFree": null,
    "pmrAccessible": false,
    "kidsFriendly": null,
    "createdAt": {
      "_seconds": 1771957554,
      "_nanoseconds": 0
    },
    "updatedAt": "2026-02-24T19:25:54.455004"
  },
  {
    "id": "osm_11052203162",
    "name": "Musée de la Mécanographie",
    "lat": 46.2020474,
    "lng": 5.2313255,
    "location": {
      "_latitude": 46.2020474,
      "_longitude": 5.2313255
    },
    "description": "Point d'intérêt: Musée de la Mécanographie",
    "category": "culture",
    "categoryGroup": "Culture",
    "categoryItem": "museum",
    "city": "Ain",
    "departmentCode": "01",
    "imageUrls": [
      "https://www.wikidata.org/wiki/Q3330044"
    ],
    "images": [
      "https://www.wikidata.org/wiki/Q3330044"
    ],
    "websiteUrl": "https://musee-mecanographie.jimdofree.com/",
    "website": "https://musee-mecanographie.jimdofree.com/",
    "source": "openstreetmap",
    "osmId": 11052203162,
    "isPublic": true,
    "isValidated": true,
    "isFree": null,
    "pmrAccessible": false,
    "kidsFriendly": null,
    "createdAt": {
      "_seconds": 1771957554,
      "_nanoseconds": 0
    },
    "updatedAt": "2026-02-24T19:25:54.455009"
  },
  {
    "id": "osm_11071245227",
    "name": "Théière",
    "lat": 46.1826896,
    "lng": 5.2593835,
    "location": {
      "_latitude": 46.1826896,
      "_longitude": 5.2593835
    },
    "description": "Point d'intérêt: Théière",
    "category": "culture",
    "categoryGroup": "Culture",
    "categoryItem": "artwork",
    "city": "Ain",
    "departmentCode": "01",
    "imageUrls": [],
    "images": [],
    "websiteUrl": null,
    "website": null,
    "source": "openstreetmap",
    "osmId": 11071245227,
    "isPublic": true,
    "isValidated": true,
    "isFree": null,
    "pmrAccessible": false,
    "kidsFriendly": null,
    "createdAt": {
      "_seconds": 1771957554,
      "_nanoseconds": 0
    },
    "updatedAt": "2026-02-24T19:25:54.455014"
  },
  {
    "id": "osm_11071245228",
    "name": "POI sans nom",
    "lat": 46.1831132,
    "lng": 5.2582292,
    "location": {
      "_latitude": 46.1831132,
      "_longitude": 5.2582292
    },
    "description": "Point d'intérêt: POI sans nom",
    "category": "culture",
    "categoryGroup": "Culture",
    "categoryItem": "artwork",
    "city": "Ain",
    "departmentCode": "01",
    "imageUrls": [],
    "images": [],
    "websiteUrl": null,
    "website": null,
    "source": "openstreetmap",
    "osmId": 11071245228,
    "isPublic": true,
    "isValidated": true,
    "isFree": null,
    "pmrAccessible": false,
    "kidsFriendly": null,
    "createdAt": {
      "_seconds": 1771957554,
      "_nanoseconds": 0
    },
    "updatedAt": "2026-02-24T19:25:54.455018"
  },
  {
    "id": "osm_11323305302",
    "name": "Germination",
    "lat": 46.2156586,
    "lng": 5.244755,
    "location": {
      "_latitude": 46.2156586,
      "_longitude": 5.244755
    },
    "description": "Point d'intérêt: Germination",
    "category": "culture",
    "categoryGroup": "Culture",
    "categoryItem": "artwork",
    "city": "Ain",
    "departmentCode": "01",
    "imageUrls": [],
    "images": [],
    "websiteUrl": null,
    "website": null,
    "source": "openstreetmap",
    "osmId": 11323305302,
    "isPublic": true,
    "isValidated": true,
    "isFree": null,
    "pmrAccessible": false,
    "kidsFriendly": null,
    "createdAt": {
      "_seconds": 1771957554,
      "_nanoseconds": 0
    },
    "updatedAt": "2026-02-24T19:25:54.455022"
  },
  {
    "id": "osm_11323326350",
    "name": "Sans titre",
    "lat": 46.2115077,
    "lng": 5.2446596,
    "location": {
      "_latitude": 46.2115077,
      "_longitude": 5.2446596
    },
    "description": "Point d'intérêt: Sans titre",
    "category": "culture",
    "categoryGroup": "Culture",
    "categoryItem": "artwork",
    "city": "Ain",
    "departmentCode": "01",
    "imageUrls": [],
    "images": [],
    "websiteUrl": null,
    "website": null,
    "source": "openstreetmap",
    "osmId": 11323326350,
    "isPublic": true,
    "isValidated": true,
    "isFree": null,
    "pmrAccessible": false,
    "kidsFriendly": null,
    "createdAt": {
      "_seconds": 1771957554,
      "_nanoseconds": 0
    },
    "updatedAt": "2026-02-24T19:25:54.455026"
  },
  {
    "id": "osm_11323347211",
    "name": "Source — Modulation sur le carré n°27",
    "lat": 46.2117297,
    "lng": 5.2445956,
    "location": {
      "_latitude": 46.2117297,
      "_longitude": 5.2445956
    },
    "description": "Point d'intérêt: Source — Modulation sur le carré n°27",
    "category": "culture",
    "categoryGroup": "Culture",
    "categoryItem": "artwork",
    "city": "Ain",
    "departmentCode": "01",
    "imageUrls": [],
    "images": [],
    "websiteUrl": null,
    "website": null,
    "source": "openstreetmap",
    "osmId": 11323347211,
    "isPublic": true,
    "isValidated": true,
    "isFree": null,
    "pmrAccessible": false,
    "kidsFriendly": null,
    "createdAt": {
      "_seconds": 1771957554,
      "_nanoseconds": 0
    },
    "updatedAt": "2026-02-24T19:25:54.455029"
  },
  {
    "id": "osm_11323350383",
    "name": "Fécondation",
    "lat": 46.2118879,
    "lng": 5.2447943,
    "location": {
      "_latitude": 46.2118879,
      "_longitude": 5.2447943
    },
    "description": "Point d'intérêt: Fécondation",
    "category": "culture",
    "categoryGroup": "Culture",
    "categoryItem": "artwork",
    "city": "Ain",
    "departmentCode": "01",
    "imageUrls": [],
    "images": [],
    "websiteUrl": null,
    "website": null,
    "source": "openstreetmap",
    "osmId": 11323350383,
    "isPublic": true,
    "isValidated": true,
    "isFree": null,
    "pmrAccessible": false,
    "kidsFriendly": null,
    "createdAt": {
      "_seconds": 1771957554,
      "_nanoseconds": 0
    },
    "updatedAt": "2026-02-24T19:25:54.455033"
  },
  {
    "id": "osm_11328862214",
    "name": "Artphonème",
    "lat": 46.2007625,
    "lng": 5.2303551,
    "location": {
      "_latitude": 46.2007625,
      "_longitude": 5.2303551
    },
    "description": "Point d'intérêt: Artphonème",
    "category": "culture",
    "categoryGroup": "Culture",
    "categoryItem": "theatre",
    "city": "Ain",
    "departmentCode": "01",
    "imageUrls": [
      "https://www.wikidata.org/wiki/Q123347355"
    ],
    "images": [
      "https://www.wikidata.org/wiki/Q123347355"
    ],
    "websiteUrl": "https://www.theatreartphoneme.fr/",
    "website": "https://www.theatreartphoneme.fr/",
    "source": "openstreetmap",
    "osmId": 11328862214,
    "isPublic": true,
    "isValidated": true,
    "isFree": null,
    "pmrAccessible": false,
    "kidsFriendly": null,
    "createdAt": {
      "_seconds": 1771957554,
      "_nanoseconds": 0
    },
    "updatedAt": "2026-02-24T19:25:54.455038"
  },
  {
    "id": "osm_11484556318",
    "name": "Au Jacobin",
    "lat": 46.2031767,
    "lng": 5.2260575,
    "location": {
      "_latitude": 46.2031767,
      "_longitude": 5.2260575
    },
    "description": "Point d'intérêt: Au Jacobin",
    "category": "culture",
    "categoryGroup": "Culture",
    "categoryItem": "artwork",
    "city": "Ain",
    "departmentCode": "01",
    "imageUrls": [],
    "images": [],
    "websiteUrl": null,
    "website": null,
    "source": "openstreetmap",
    "osmId": 11484556318,
    "isPublic": true,
    "isValidated": true,
    "isFree": null,
    "pmrAccessible": false,
    "kidsFriendly": null,
    "createdAt": {
      "_seconds": 1771957554,
      "_nanoseconds": 0
    },
    "updatedAt": "2026-02-24T19:25:54.455042"
  },
  {
    "id": "osm_11542428294",
    "name": "POI sans nom",
    "lat": 46.2132083,
    "lng": 5.225803,
    "location": {
      "_latitude": 46.2132083,
      "_longitude": 5.225803
    },
    "description": "Point d'intérêt: POI sans nom",
    "category": "culture",
    "categoryGroup": "Culture",
    "categoryItem": "artwork",
    "city": "Ain",
    "departmentCode": "01",
    "imageUrls": [],
    "images": [],
    "websiteUrl": null,
    "website": null,
    "source": "openstreetmap",
    "osmId": 11542428294,
    "isPublic": true,
    "isValidated": true,
    "isFree": null,
    "pmrAccessible": false,
    "kidsFriendly": null,
    "createdAt": {
      "_seconds": 1771957554,
      "_nanoseconds": 0
    },
    "updatedAt": "2026-02-24T19:25:54.455047"
  },
  {
    "id": "osm_11542428295",
    "name": "POI sans nom",
    "lat": 46.2131711,
    "lng": 5.2257912,
    "location": {
      "_latitude": 46.2131711,
      "_longitude": 5.2257912
    },
    "description": "Point d'intérêt: POI sans nom",
    "category": "culture",
    "categoryGroup": "Culture",
    "categoryItem": "artwork",
    "city": "Ain",
    "departmentCode": "01",
    "imageUrls": [],
    "images": [],
    "websiteUrl": null,
    "website": null,
    "source": "openstreetmap",
    "osmId": 11542428295,
    "isPublic": true,
    "isValidated": true,
    "isFree": null,
    "pmrAccessible": false,
    "kidsFriendly": null,
    "createdAt": {
      "_seconds": 1771957554,
      "_nanoseconds": 0
    },
    "updatedAt": "2026-02-24T19:25:54.455051"
  },
  {
    "id": "osm_11563632886",
    "name": "POI sans nom",
    "lat": 46.1937175,
    "lng": 5.22155,
    "location": {
      "_latitude": 46.1937175,
      "_longitude": 5.22155
    },
    "description": "Jean-Marie Vianney",
    "category": "culture",
    "categoryGroup": "Culture",
    "categoryItem": "artwork",
    "city": "Ain",
    "departmentCode": "01",
    "imageUrls": [],
    "images": [],
    "websiteUrl": null,
    "website": null,
    "source": "openstreetmap",
    "osmId": 11563632886,
    "isPublic": true,
    "isValidated": true,
    "isFree": null,
    "pmrAccessible": false,
    "kidsFriendly": null,
    "createdAt": {
      "_seconds": 1771957554,
      "_nanoseconds": 0
    },
    "updatedAt": "2026-02-24T19:25:54.455055"
  },
  {
    "id": "osm_11563632892",
    "name": "POI sans nom",
    "lat": 46.1928839,
    "lng": 5.2213012,
    "location": {
      "_latitude": 46.1928839,
      "_longitude": 5.2213012
    },
    "description": "Statue de la vierge Marie",
    "category": "culture",
    "categoryGroup": "Culture",
    "categoryItem": "artwork",
    "city": "Ain",
    "departmentCode": "01",
    "imageUrls": [],
    "images": [],
    "websiteUrl": null,
    "website": null,
    "source": "openstreetmap",
    "osmId": 11563632892,
    "isPublic": true,
    "isValidated": true,
    "isFree": null,
    "pmrAccessible": false,
    "kidsFriendly": null,
    "createdAt": {
      "_seconds": 1771957554,
      "_nanoseconds": 0
    },
    "updatedAt": "2026-02-24T19:25:54.455058"
  },
  {
    "id": "osm_11715827878",
    "name": "Fil de l’eau",
    "lat": 46.1836248,
    "lng": 5.2579911,
    "location": {
      "_latitude": 46.1836248,
      "_longitude": 5.2579911
    },
    "description": "Sur le toit de la villa",
    "category": "culture",
    "categoryGroup": "Culture",
    "categoryItem": "artwork",
    "city": "Ain",
    "departmentCode": "01",
    "imageUrls": [],
    "images": [],
    "websiteUrl": null,
    "website": null,
    "source": "openstreetmap",
    "osmId": 11715827878,
    "isPublic": true,
    "isValidated": true,
    "isFree": null,
    "pmrAccessible": false,
    "kidsFriendly": null,
    "createdAt": {
      "_seconds": 1771957554,
      "_nanoseconds": 0
    },
    "updatedAt": "2026-02-24T19:25:54.455062"
  },
  {
    "id": "osm_11878324191",
    "name": "POI sans nom",
    "lat": 46.20185,
    "lng": 5.2187894,
    "location": {
      "_latitude": 46.20185,
      "_longitude": 5.2187894
    },
    "description": "Point d'intérêt: POI sans nom",
    "category": "culture",
    "categoryGroup": "Culture",
    "categoryItem": "artwork",
    "city": "Ain",
    "departmentCode": "01",
    "imageUrls": [],
    "images": [],
    "websiteUrl": null,
    "website": null,
    "source": "openstreetmap",
    "osmId": 11878324191,
    "isPublic": true,
    "isValidated": true,
    "isFree": null,
    "pmrAccessible": false,
    "kidsFriendly": null,
    "createdAt": {
      "_seconds": 1771957554,
      "_nanoseconds": 0
    },
    "updatedAt": "2026-02-24T19:25:54.455066"
  },
  {
    "id": "osm_11982957510",
    "name": "POI sans nom",
    "lat": 46.2096053,
    "lng": 5.1323957,
    "location": {
      "_latitude": 46.2096053,
      "_longitude": 5.1323957
    },
    "description": "Point d'intérêt: POI sans nom",
    "category": "culture",
    "categoryGroup": "Culture",
    "categoryItem": "artwork",
    "city": "Ain",
    "departmentCode": "01",
    "imageUrls": [],
    "images": [],
    "websiteUrl": null,
    "website": null,
    "source": "openstreetmap",
    "osmId": 11982957510,
    "isPublic": true,
    "isValidated": true,
    "isFree": null,
    "pmrAccessible": false,
    "kidsFriendly": null,
    "createdAt": {
      "_seconds": 1771957554,
      "_nanoseconds": 0
    },
    "updatedAt": "2026-02-24T19:25:54.455069"
  },
  {
    "id": "osm_11983004789",
    "name": "POI sans nom",
    "lat": 46.2074618,
    "lng": 5.1339126,
    "location": {
      "_latitude": 46.2074618,
      "_longitude": 5.1339126
    },
    "description": "Point d'intérêt: POI sans nom",
    "category": "culture",
    "categoryGroup": "Culture",
    "categoryItem": "artwork",
    "city": "Ain",
    "departmentCode": "01",
    "imageUrls": [],
    "images": [],
    "websiteUrl": null,
    "website": null,
    "source": "openstreetmap",
    "osmId": 11983004789,
    "isPublic": true,
    "isValidated": true,
    "isFree": null,
    "pmrAccessible": false,
    "kidsFriendly": null,
    "createdAt": {
      "_seconds": 1771957554,
      "_nanoseconds": 0
    },
    "updatedAt": "2026-02-24T19:25:54.455073"
  },
  {
    "id": "osm_12094986590",
    "name": "Tubularis",
    "lat": 46.1833388,
    "lng": 5.2575769,
    "location": {
      "_latitude": 46.1833388,
      "_longitude": 5.2575769
    },
    "description": "Point d'intérêt: Tubularis",
    "category": "culture",
    "categoryGroup": "Culture",
    "categoryItem": "artwork",
    "city": "Ain",
    "departmentCode": "01",
    "imageUrls": [],
    "images": [],
    "websiteUrl": null,
    "website": null,
    "source": "openstreetmap",
    "osmId": 12094986590,
    "isPublic": true,
    "isValidated": true,
    "isFree": null,
    "pmrAccessible": false,
    "kidsFriendly": null,
    "createdAt": {
      "_seconds": 1771957554,
      "_nanoseconds": 0
    },
    "updatedAt": "2026-02-24T19:25:54.455078"
  },
  {
    "id": "osm_12095135715",
    "name": "POI sans nom",
    "lat": 46.1830814,
    "lng": 5.2570427,
    "location": {
      "_latitude": 46.1830814,
      "_longitude": 5.2570427
    },
    "description": "Point d'intérêt: POI sans nom",
    "category": "culture",
    "categoryGroup": "Culture",
    "categoryItem": "artwork",
    "city": "Ain",
    "departmentCode": "01",
    "imageUrls": [],
    "images": [],
    "websiteUrl": null,
    "website": null,
    "source": "openstreetmap",
    "osmId": 12095135715,
    "isPublic": true,
    "isValidated": true,
    "isFree": null,
    "pmrAccessible": false,
    "kidsFriendly": null,
    "createdAt": {
      "_seconds": 1771957554,
      "_nanoseconds": 0
    },
    "updatedAt": "2026-02-24T19:25:54.455082"
  },
  {
    "id": "osm_12095135716",
    "name": "POI sans nom",
    "lat": 46.1831553,
    "lng": 5.2569774,
    "location": {
      "_latitude": 46.1831553,
      "_longitude": 5.2569774
    },
    "description": "Point d'intérêt: POI sans nom",
    "category": "culture",
    "categoryGroup": "Culture",
    "categoryItem": "artwork",
    "city": "Ain",
    "departmentCode": "01",
    "imageUrls": [],
    "images": [],
    "websiteUrl": null,
    "website": null,
    "source": "openstreetmap",
    "osmId": 12095135716,
    "isPublic": true,
    "isValidated": true,
    "isFree": null,
    "pmrAccessible": false,
    "kidsFriendly": null,
    "createdAt": {
      "_seconds": 1771957554,
      "_nanoseconds": 0
    },
    "updatedAt": "2026-02-24T19:25:54.455085"
  },
  {
    "id": "osm_12095135717",
    "name": "POI sans nom",
    "lat": 46.183222,
    "lng": 5.2570405,
    "location": {
      "_latitude": 46.183222,
      "_longitude": 5.2570405
    },
    "description": "Point d'intérêt: POI sans nom",
    "category": "culture",
    "categoryGroup": "Culture",
    "categoryItem": "artwork",
    "city": "Ain",
    "departmentCode": "01",
    "imageUrls": [],
    "images": [],
    "websiteUrl": null,
    "website": null,
    "source": "openstreetmap",
    "osmId": 12095135717,
    "isPublic": true,
    "isValidated": true,
    "isFree": null,
    "pmrAccessible": false,
    "kidsFriendly": null,
    "createdAt": {
      "_seconds": 1771957554,
      "_nanoseconds": 0
    },
    "updatedAt": "2026-02-24T19:25:54.455089"
  },
  {
    "id": "osm_12095135718",
    "name": "POI sans nom",
    "lat": 46.1831274,
    "lng": 5.2572131,
    "location": {
      "_latitude": 46.1831274,
      "_longitude": 5.2572131
    },
    "description": "Point d'intérêt: POI sans nom",
    "category": "culture",
    "categoryGroup": "Culture",
    "categoryItem": "artwork",
    "city": "Ain",
    "departmentCode": "01",
    "imageUrls": [],
    "images": [],
    "websiteUrl": null,
    "website": null,
    "source": "openstreetmap",
    "osmId": 12095135718,
    "isPublic": true,
    "isValidated": true,
    "isFree": null,
    "pmrAccessible": false,
    "kidsFriendly": null,
    "createdAt": {
      "_seconds": 1771957554,
      "_nanoseconds": 0
    },
    "updatedAt": "2026-02-24T19:25:54.455094"
  },
  {
    "id": "osm_12095135719",
    "name": "POI sans nom",
    "lat": 46.183072,
    "lng": 5.2571374,
    "location": {
      "_latitude": 46.183072,
      "_longitude": 5.2571374
    },
    "description": "Point d'intérêt: POI sans nom",
    "category": "culture",
    "categoryGroup": "Culture",
    "categoryItem": "artwork",
    "city": "Ain",
    "departmentCode": "01",
    "imageUrls": [],
    "images": [],
    "websiteUrl": null,
    "website": null,
    "source": "openstreetmap",
    "osmId": 12095135719,
    "isPublic": true,
    "isValidated": true,
    "isFree": null,
    "pmrAccessible": false,
    "kidsFriendly": null,
    "createdAt": {
      "_seconds": 1771957554,
      "_nanoseconds": 0
    },
    "updatedAt": "2026-02-24T19:25:54.455098"
  },
  {
    "id": "osm_12119740160",
    "name": "POI sans nom",
    "lat": 46.1960541,
    "lng": 5.212398,
    "location": {
      "_latitude": 46.1960541,
      "_longitude": 5.212398
    },
    "description": "Point d'intérêt: POI sans nom",
    "category": "culture",
    "categoryGroup": "Culture",
    "categoryItem": "artwork",
    "city": "Ain",
    "departmentCode": "01",
    "imageUrls": [],
    "images": [],
    "websiteUrl": null,
    "website": null,
    "source": "openstreetmap",
    "osmId": 12119740160,
    "isPublic": true,
    "isValidated": true,
    "isFree": null,
    "pmrAccessible": false,
    "kidsFriendly": null,
    "createdAt": {
      "_seconds": 1771957554,
      "_nanoseconds": 0
    },
    "updatedAt": "2026-02-24T19:25:54.455101"
  },
  {
    "id": "osm_12435016869",
    "name": "POI sans nom",
    "lat": 46.1817741,
    "lng": 5.2046136,
    "location": {
      "_latitude": 46.1817741,
      "_longitude": 5.2046136
    },
    "description": "Point d'intérêt: POI sans nom",
    "category": "culture",
    "categoryGroup": "Culture",
    "categoryItem": "artwork",
    "city": "Ain",
    "departmentCode": "01",
    "imageUrls": [],
    "images": [],
    "websiteUrl": null,
    "website": null,
    "source": "openstreetmap",
    "osmId": 12435016869,
    "isPublic": true,
    "isValidated": true,
    "isFree": null,
    "pmrAccessible": false,
    "kidsFriendly": null,
    "createdAt": {
      "_seconds": 1771957554,
      "_nanoseconds": 0
    },
    "updatedAt": "2026-02-24T19:25:54.455105"
  },
  {
    "id": "osm_12488154301",
    "name": "Sabotage",
    "lat": 46.1973022,
    "lng": 5.2379625,
    "location": {
      "_latitude": 46.1973022,
      "_longitude": 5.2379625
    },
    "description": "Point d'intérêt: Sabotage",
    "category": "culture",
    "categoryGroup": "Culture",
    "categoryItem": "artwork",
    "city": "Ain",
    "departmentCode": "01",
    "imageUrls": [],
    "images": [],
    "websiteUrl": null,
    "website": null,
    "source": "openstreetmap",
    "osmId": 12488154301,
    "isPublic": true,
    "isValidated": true,
    "isFree": null,
    "pmrAccessible": false,
    "kidsFriendly": null,
    "createdAt": {
      "_seconds": 1771957554,
      "_nanoseconds": 0
    },
    "updatedAt": "2026-02-24T19:25:54.455109"
  },
  {
    "id": "osm_12589684761",
    "name": "POI sans nom",
    "lat": 46.2081372,
    "lng": 5.2427325,
    "location": {
      "_latitude": 46.2081372,
      "_longitude": 5.2427325
    },
    "description": "Libellule métallique sur socle",
    "category": "culture",
    "categoryGroup": "Culture",
    "categoryItem": "artwork",
    "city": "Ain",
    "departmentCode": "01",
    "imageUrls": [],
    "images": [],
    "websiteUrl": null,
    "website": null,
    "source": "openstreetmap",
    "osmId": 12589684761,
    "isPublic": true,
    "isValidated": true,
    "isFree": null,
    "pmrAccessible": false,
    "kidsFriendly": null,
    "createdAt": {
      "_seconds": 1771957554,
      "_nanoseconds": 0
    },
    "updatedAt": "2026-02-24T19:25:54.455113"
  },
  {
    "id": "osm_12876841473",
    "name": "POI sans nom",
    "lat": 46.1836727,
    "lng": 5.256778,
    "location": {
      "_latitude": 46.1836727,
      "_longitude": 5.256778
    },
    "description": "Point d'intérêt: POI sans nom",
    "category": "culture",
    "categoryGroup": "Culture",
    "categoryItem": "artwork",
    "city": "Ain",
    "departmentCode": "01",
    "imageUrls": [],
    "images": [],
    "websiteUrl": null,
    "website": null,
    "source": "openstreetmap",
    "osmId": 12876841473,
    "isPublic": true,
    "isValidated": true,
    "isFree": null,
    "pmrAccessible": false,
    "kidsFriendly": null,
    "createdAt": {
      "_seconds": 1771957554,
      "_nanoseconds": 0
    },
    "updatedAt": "2026-02-24T19:25:54.455116"
  },
  {
    "id": "osm_12876841475",
    "name": "POI sans nom",
    "lat": 46.1819023,
    "lng": 5.2593458,
    "location": {
      "_latitude": 46.1819023,
      "_longitude": 5.2593458
    },
    "description": "Point d'intérêt: POI sans nom",
    "category": "culture",
    "categoryGroup": "Culture",
    "categoryItem": "artwork",
    "city": "Ain",
    "departmentCode": "01",
    "imageUrls": [],
    "images": [],
    "websiteUrl": null,
    "website": null,
    "source": "openstreetmap",
    "osmId": 12876841475,
    "isPublic": true,
    "isValidated": true,
    "isFree": null,
    "pmrAccessible": false,
    "kidsFriendly": null,
    "createdAt": {
      "_seconds": 1771957554,
      "_nanoseconds": 0
    },
    "updatedAt": "2026-02-24T19:25:54.455120"
  },
  {
    "id": "osm_12971325682",
    "name": "POI sans nom",
    "lat": 46.1847966,
    "lng": 5.2531372,
    "location": {
      "_latitude": 46.1847966,
      "_longitude": 5.2531372
    },
    "description": "Point d'intérêt: POI sans nom",
    "category": "culture",
    "categoryGroup": "Culture",
    "categoryItem": "artwork",
    "city": "Ain",
    "departmentCode": "01",
    "imageUrls": [],
    "images": [],
    "websiteUrl": null,
    "website": null,
    "source": "openstreetmap",
    "osmId": 12971325682,
    "isPublic": true,
    "isValidated": true,
    "isFree": null,
    "pmrAccessible": false,
    "kidsFriendly": null,
    "createdAt": {
      "_seconds": 1771957554,
      "_nanoseconds": 0
    },
    "updatedAt": "2026-02-24T19:25:54.455123"
  },
  {
    "id": "osm_13291062626",
    "name": "POI sans nom",
    "lat": 46.1936684,
    "lng": 5.3983958,
    "location": {
      "_latitude": 46.1936684,
      "_longitude": 5.3983958
    },
    "description": "Point d'intérêt: POI sans nom",
    "category": "culture",
    "categoryGroup": "Culture",
    "categoryItem": "artwork",
    "city": "Ain",
    "departmentCode": "01",
    "imageUrls": [],
    "images": [],
    "websiteUrl": null,
    "website": null,
    "source": "openstreetmap",
    "osmId": 13291062626,
    "isPublic": true,
    "isValidated": true,
    "isFree": null,
    "pmrAccessible": false,
    "kidsFriendly": null,
    "createdAt": {
      "_seconds": 1771957554,
      "_nanoseconds": 0
    },
    "updatedAt": "2026-02-24T19:25:54.455127"
  },
  {
    "id": "osm_13395078134",
    "name": "POI sans nom",
    "lat": 46.2043933,
    "lng": 5.2942542,
    "location": {
      "_latitude": 46.2043933,
      "_longitude": 5.2942542
    },
    "description": "Point d'intérêt: POI sans nom",
    "category": "culture",
    "categoryGroup": "Culture",
    "categoryItem": "artwork",
    "city": "Ain",
    "departmentCode": "01",
    "imageUrls": [],
    "images": [],
    "websiteUrl": null,
    "website": null,
    "source": "openstreetmap",
    "osmId": 13395078134,
    "isPublic": true,
    "isValidated": true,
    "isFree": null,
    "pmrAccessible": false,
    "kidsFriendly": null,
    "createdAt": {
      "_seconds": 1771957554,
      "_nanoseconds": 0
    },
    "updatedAt": "2026-02-24T19:25:54.455131"
  },
  {
    "id": "osm_13395755112",
    "name": "Vierge Marie",
    "lat": 46.2541134,
    "lng": 5.2159759,
    "location": {
      "_latitude": 46.2541134,
      "_longitude": 5.2159759
    },
    "description": "Point d'intérêt: Vierge Marie",
    "category": "culture",
    "categoryGroup": "Culture",
    "categoryItem": "artwork",
    "city": "Ain",
    "departmentCode": "01",
    "imageUrls": [],
    "images": [],
    "websiteUrl": null,
    "website": null,
    "source": "openstreetmap",
    "osmId": 13395755112,
    "isPublic": true,
    "isValidated": true,
    "isFree": null,
    "pmrAccessible": false,
    "kidsFriendly": null,
    "createdAt": {
      "_seconds": 1771957554,
      "_nanoseconds": 0
    },
    "updatedAt": "2026-02-24T19:25:54.455134"
  },
  {
    "id": "osm_447567433",
    "name": "Musée Antoine Lécuyer",
    "lat": 49.8499358,
    "lng": 3.2849588,
    "location": {
      "_latitude": 49.8499358,
      "_longitude": 3.2849588
    },
    "description": "Point d'intérêt: Musée Antoine Lécuyer",
    "category": "culture",
    "categoryGroup": "Culture",
    "categoryItem": "museum",
    "city": "Aisne",
    "departmentCode": "02",
    "imageUrls": [
      "https://www.wikidata.org/wiki/Q2854179"
    ],
    "images": [
      "https://www.wikidata.org/wiki/Q2854179"
    ],
    "websiteUrl": "https://www.saint-quentin.fr/109-musee-lecuyer.htm",
    "website": "https://www.saint-quentin.fr/109-musee-lecuyer.htm",
    "source": "openstreetmap",
    "osmId": 447567433,
    "isPublic": true,
    "isValidated": true,
    "isFree": null,
    "pmrAccessible": false,
    "kidsFriendly": null,
    "createdAt": {
      "_seconds": 1771957556,
      "_nanoseconds": 0
    },
    "updatedAt": "2026-02-24T19:25:56.301767"
  },
  {
    "id": "osm_1191712750",
    "name": "La Manufacture",
    "lat": 49.8545906,
    "lng": 3.2701605,
    "location": {
      "_latitude": 49.8545906,
      "_longitude": 3.2701605
    },
    "description": "Point d'intérêt: La Manufacture",
    "category": "culture",
    "categoryGroup": "Culture",
    "categoryItem": "theatre",
    "city": "Aisne",
    "departmentCode": "02",
    "imageUrls": [],
    "images": [],
    "websiteUrl": "https://www.saint-quentin.fr/1674-la-manufacture.htm",
    "website": "https://www.saint-quentin.fr/1674-la-manufacture.htm",
    "source": "openstreetmap",
    "osmId": 1191712750,
    "isPublic": true,
    "isValidated": true,
    "isFree": null,
    "pmrAccessible": false,
    "kidsFriendly": null,
    "createdAt": {
      "_seconds": 1771957556,
      "_nanoseconds": 0
    },
    "updatedAt": "2026-02-24T19:25:56.301823"
  },
  {
    "id": "osm_1291964147",
    "name": "Théâtre Jean Vilar",
    "lat": 49.8462421,
    "lng": 3.2871561,
    "location": {
      "_latitude": 49.8462421,
      "_longitude": 3.2871561
    },
    "description": "Point d'intérêt: Théâtre Jean Vilar",
    "category": "culture",
    "categoryGroup": "Culture",
    "categoryItem": "theatre",
    "city": "Aisne",
    "departmentCode": "02",
    "imageUrls": [],
    "images": [],
    "websiteUrl": null,
    "website": null,
    "source": "openstreetmap",
    "osmId": 1291964147,
    "isPublic": true,
    "isValidated": true,
    "isFree": null,
    "pmrAccessible": false,
    "kidsFriendly": null,
    "createdAt": {
      "_seconds": 1771957556,
      "_nanoseconds": 0
    },
    "updatedAt": "2026-02-24T19:25:56.301841"
  },
  {
    "id": "osm_1315361068",
    "name": "Espace Saint-Jacques",
    "lat": 49.8459119,
    "lng": 3.2886592,
    "location": {
      "_latitude": 49.8459119,
      "_longitude": 3.2886592
    },
    "description": "Point d'intérêt: Espace Saint-Jacques",
    "category": "culture",
    "categoryGroup": "Culture",
    "categoryItem": "museum",
    "city": "Aisne",
    "departmentCode": "02",
    "imageUrls": [],
    "images": [],
    "websiteUrl": "https://www.saint-quentin.fr/108-musee-papillons.htm",
    "website": "https://www.saint-quentin.fr/108-musee-papillons.htm",
    "source": "openstreetmap",
    "osmId": 1315361068,
    "isPublic": true,
    "isValidated": true,
    "isFree": null,
    "pmrAccessible": false,
    "kidsFriendly": null,
    "createdAt": {
      "_seconds": 1771957556,
      "_nanoseconds": 0
    },
    "updatedAt": "2026-02-24T19:25:56.301858"
  },
  {
    "id": "osm_1317712984",
    "name": "CGR Saint-Quentin",
    "lat": 49.8410672,
    "lng": 3.2939601,
    "location": {
      "_latitude": 49.8410672,
      "_longitude": 3.2939601
    },
    "description": "Point d'intérêt: CGR Saint-Quentin",
    "category": "culture",
    "categoryGroup": "Culture",
    "categoryItem": "cinema",
    "city": "Aisne",
    "departmentCode": "02",
    "imageUrls": [],
    "images": [],
    "websiteUrl": "https://www.cgrcinemas.fr/saint-quentin",
    "website": "https://www.cgrcinemas.fr/saint-quentin",
    "source": "openstreetmap",
    "osmId": 1317712984,
    "isPublic": true,
    "isValidated": true,
    "isFree": null,
    "pmrAccessible": false,
    "kidsFriendly": null,
    "createdAt": {
      "_seconds": 1771957556,
      "_nanoseconds": 0
    },
    "updatedAt": "2026-02-24T19:25:56.301872"
  },
  {
    "id": "osm_1335869493",
    "name": "Statue Quentin de la Tour",
    "lat": 49.8463083,
    "lng": 3.2876287,
    "location": {
      "_latitude": 49.8463083,
      "_longitude": 3.2876287
    },
    "description": "Point d'intérêt: Statue Quentin de la Tour",
    "category": "culture",
    "categoryGroup": "Culture",
    "categoryItem": "artwork",
    "city": "Aisne",
    "departmentCode": "02",
    "imageUrls": [
      "https://fr.wikipedia.org/wiki/Maurice-Quentin_de_La_Tour#/media/Fichier:Saint-Quentin_Statue_de_Quentin_de_la_Tour.jpg"
    ],
    "images": [
      "https://fr.wikipedia.org/wiki/Maurice-Quentin_de_La_Tour#/media/Fichier:Saint-Quentin_Statue_de_Quentin_de_la_Tour.jpg"
    ],
    "websiteUrl": null,
    "website": null,
    "source": "openstreetmap",
    "osmId": 1335869493,
    "isPublic": true,
    "isValidated": true,
    "isFree": null,
    "pmrAccessible": false,
    "kidsFriendly": null,
    "createdAt": {
      "_seconds": 1771957556,
      "_nanoseconds": 0
    },
    "updatedAt": "2026-02-24T19:25:56.301891"
  },
  {
    "id": "osm_3583508794",
    "name": "Touage de Riqueval",
    "lat": 49.9511686,
    "lng": 3.2361645,
    "location": {
      "_latitude": 49.9511686,
      "_longitude": 3.2361645
    },
    "description": "Point d'intérêt: Touage de Riqueval",
    "category": "culture",
    "categoryGroup": "Culture",
    "categoryItem": "museum",
    "city": "Aisne",
    "departmentCode": "02",
    "imageUrls": [],
    "images": [],
    "websiteUrl": null,
    "website": null,
    "source": "openstreetmap",
    "osmId": 3583508794,
    "isPublic": true,
    "isValidated": true,
    "isFree": null,
    "pmrAccessible": false,
    "kidsFriendly": null,
    "createdAt": {
      "_seconds": 1771957556,
      "_nanoseconds": 0
    },
    "updatedAt": "2026-02-24T19:25:56.301908"
  },
  {
    "id": "osm_5794423640",
    "name": "La maison de Marie-Jeanne",
    "lat": 49.7662633,
    "lng": 3.375155,
    "location": {
      "_latitude": 49.7662633,
      "_longitude": 3.375155
    },
    "description": "Point d'intérêt: La maison de Marie-Jeanne",
    "category": "culture",
    "categoryGroup": "Culture",
    "categoryItem": "museum",
    "city": "Aisne",
    "departmentCode": "02",
    "imageUrls": [
      "https://www.wikidata.org/wiki/Q3330630"
    ],
    "images": [
      "https://www.wikidata.org/wiki/Q3330630"
    ],
    "websiteUrl": "https://la-maison-de-marie-jeanne.fr/",
    "website": "https://la-maison-de-marie-jeanne.fr/",
    "source": "openstreetmap",
    "osmId": 5794423640,
    "isPublic": true,
    "isValidated": true,
    "isFree": null,
    "pmrAccessible": false,
    "kidsFriendly": null,
    "createdAt": {
      "_seconds": 1771957556,
      "_nanoseconds": 0
    },
    "updatedAt": "2026-02-24T19:25:56.301927"
  },
  {
    "id": "osm_9979324581",
    "name": "Musée Motobécane",
    "lat": 49.8342497,
    "lng": 3.3069046,
    "location": {
      "_latitude": 49.8342497,
      "_longitude": 3.3069046
    },
    "description": "Point d'intérêt: Musée Motobécane",
    "category": "culture",
    "categoryGroup": "Culture",
    "categoryItem": "museum",
    "city": "Aisne",
    "departmentCode": "02",
    "imageUrls": [
      "https://www.wikidata.org/wiki/Q113625316"
    ],
    "images": [
      "https://www.wikidata.org/wiki/Q113625316"
    ],
    "websiteUrl": "https://www.village-metiers-dantan.fr",
    "website": "https://www.village-metiers-dantan.fr",
    "source": "openstreetmap",
    "osmId": 9979324581,
    "isPublic": true,
    "isValidated": true,
    "isFree": null,
    "pmrAccessible": false,
    "kidsFriendly": null,
    "createdAt": {
      "_seconds": 1771957556,
      "_nanoseconds": 0
    },
    "updatedAt": "2026-02-24T19:25:56.301947"
  },
  {
    "id": "osm_10621728004",
    "name": "POI sans nom",
    "lat": 49.8465229,
    "lng": 3.3687434,
    "location": {
      "_latitude": 49.8465229,
      "_longitude": 3.3687434
    },
    "description": "Point d'intérêt: POI sans nom",
    "category": "culture",
    "categoryGroup": "Culture",
    "categoryItem": "artwork",
    "city": "Aisne",
    "departmentCode": "02",
    "imageUrls": [],
    "images": [],
    "websiteUrl": null,
    "website": null,
    "source": "openstreetmap",
    "osmId": 10621728004,
    "isPublic": true,
    "isValidated": true,
    "isFree": null,
    "pmrAccessible": false,
    "kidsFriendly": null,
    "createdAt": {
      "_seconds": 1771957556,
      "_nanoseconds": 0
    },
    "updatedAt": "2026-02-24T19:25:56.301963"
  },
  {
    "id": "osm_11506365892",
    "name": "Protect Love",
    "lat": 49.8482082,
    "lng": 3.2868542,
    "location": {
      "_latitude": 49.8482082,
      "_longitude": 3.2868542
    },
    "description": "Point d'intérêt: Protect Love",
    "category": "culture",
    "categoryGroup": "Culture",
    "categoryItem": "artwork",
    "city": "Aisne",
    "departmentCode": "02",
    "imageUrls": [],
    "images": [],
    "websiteUrl": null,
    "website": null,
    "source": "openstreetmap",
    "osmId": 11506365892,
    "isPublic": true,
    "isValidated": true,
    "isFree": null,
    "pmrAccessible": false,
    "kidsFriendly": null,
    "createdAt": {
      "_seconds": 1771957556,
      "_nanoseconds": 0
    },
    "updatedAt": "2026-02-24T19:25:56.301976"
  },
  {
    "id": "osm_11506365893",
    "name": "POI sans nom",
    "lat": 49.8474149,
    "lng": 3.2850945,
    "location": {
      "_latitude": 49.8474149,
      "_longitude": 3.2850945
    },
    "description": "Point d'intérêt: POI sans nom",
    "category": "culture",
    "categoryGroup": "Culture",
    "categoryItem": "artwork",
    "city": "Aisne",
    "departmentCode": "02",
    "imageUrls": [],
    "images": [],
    "websiteUrl": null,
    "website": null,
    "source": "openstreetmap",
    "osmId": 11506365893,
    "isPublic": true,
    "isValidated": true,
    "isFree": null,
    "pmrAccessible": false,
    "kidsFriendly": null,
    "createdAt": {
      "_seconds": 1771957556,
      "_nanoseconds": 0
    },
    "updatedAt": "2026-02-24T19:25:56.301991"
  },
  {
    "id": "osm_11506365894",
    "name": "M. Chat",
    "lat": 49.8474275,
    "lng": 3.2850143,
    "location": {
      "_latitude": 49.8474275,
      "_longitude": 3.2850143
    },
    "description": "Point d'intérêt: M. Chat",
    "category": "culture",
    "categoryGroup": "Culture",
    "categoryItem": "artwork",
    "city": "Aisne",
    "departmentCode": "02",
    "imageUrls": [],
    "images": [],
    "websiteUrl": null,
    "website": null,
    "source": "openstreetmap",
    "osmId": 11506365894,
    "isPublic": true,
    "isValidated": true,
    "isFree": null,
    "pmrAccessible": false,
    "kidsFriendly": null,
    "createdAt": {
      "_seconds": 1771957556,
      "_nanoseconds": 0
    },
    "updatedAt": "2026-02-24T19:25:56.302039"
  },
  {
    "id": "osm_11506365895",
    "name": "POI sans nom",
    "lat": 49.845296,
    "lng": 3.286364,
    "location": {
      "_latitude": 49.845296,
      "_longitude": 3.286364
    },
    "description": "Point d'intérêt: POI sans nom",
    "category": "culture",
    "categoryGroup": "Culture",
    "categoryItem": "artwork",
    "city": "Aisne",
    "departmentCode": "02",
    "imageUrls": [],
    "images": [],
    "websiteUrl": null,
    "website": null,
    "source": "openstreetmap",
    "osmId": 11506365895,
    "isPublic": true,
    "isValidated": true,
    "isFree": null,
    "pmrAccessible": false,
    "kidsFriendly": null,
    "createdAt": {
      "_seconds": 1771957556,
      "_nanoseconds": 0
    },
    "updatedAt": "2026-02-24T19:25:56.302054"
  },
  {
    "id": "osm_11506365896",
    "name": "POI sans nom",
    "lat": 49.845357,
    "lng": 3.2883203,
    "location": {
      "_latitude": 49.845357,
      "_longitude": 3.2883203
    },
    "description": "Point d'intérêt: POI sans nom",
    "category": "culture",
    "categoryGroup": "Culture",
    "categoryItem": "artwork",
    "city": "Aisne",
    "departmentCode": "02",
    "imageUrls": [],
    "images": [],
    "websiteUrl": null,
    "website": null,
    "source": "openstreetmap",
    "osmId": 11506365896,
    "isPublic": true,
    "isValidated": true,
    "isFree": null,
    "pmrAccessible": false,
    "kidsFriendly": null,
    "createdAt": {
      "_seconds": 1771957556,
      "_nanoseconds": 0
    },
    "updatedAt": "2026-02-24T19:25:56.302072"
  },
  {
    "id": "osm_11512057572",
    "name": "POI sans nom",
    "lat": 49.8441117,
    "lng": 3.2911326,
    "location": {
      "_latitude": 49.8441117,
      "_longitude": 3.2911326
    },
    "description": "Point d'intérêt: POI sans nom",
    "category": "culture",
    "categoryGroup": "Culture",
    "categoryItem": "artwork",
    "city": "Aisne",
    "departmentCode": "02",
    "imageUrls": [],
    "images": [],
    "websiteUrl": null,
    "website": null,
    "source": "openstreetmap",
    "osmId": 11512057572,
    "isPublic": true,
    "isValidated": true,
    "isFree": null,
    "pmrAccessible": false,
    "kidsFriendly": null,
    "createdAt": {
      "_seconds": 1771957556,
      "_nanoseconds": 0
    },
    "updatedAt": "2026-02-24T19:25:56.302090"
  },
  {
    "id": "osm_11512057573",
    "name": "POI sans nom",
    "lat": 49.8422369,
    "lng": 3.2935784,
    "location": {
      "_latitude": 49.8422369,
      "_longitude": 3.2935784
    },
    "description": "Point d'intérêt: POI sans nom",
    "category": "culture",
    "categoryGroup": "Culture",
    "categoryItem": "artwork",
    "city": "Aisne",
    "departmentCode": "02",
    "imageUrls": [],
    "images": [],
    "websiteUrl": null,
    "website": null,
    "source": "openstreetmap",
    "osmId": 11512057573,
    "isPublic": true,
    "isValidated": true,
    "isFree": null,
    "pmrAccessible": false,
    "kidsFriendly": null,
    "createdAt": {
      "_seconds": 1771957556,
      "_nanoseconds": 0
    },
    "updatedAt": "2026-02-24T19:25:56.302104"
  },
  {
    "id": "osm_11512057574",
    "name": "POI sans nom",
    "lat": 49.8406016,
    "lng": 3.2903738,
    "location": {
      "_latitude": 49.8406016,
      "_longitude": 3.2903738
    },
    "description": "Point d'intérêt: POI sans nom",
    "category": "culture",
    "categoryGroup": "Culture",
    "categoryItem": "artwork",
    "city": "Aisne",
    "departmentCode": "02",
    "imageUrls": [],
    "images": [],
    "websiteUrl": null,
    "website": null,
    "source": "openstreetmap",
    "osmId": 11512057574,
    "isPublic": true,
    "isValidated": true,
    "isFree": null,
    "pmrAccessible": false,
    "kidsFriendly": null,
    "createdAt": {
      "_seconds": 1771957556,
      "_nanoseconds": 0
    },
    "updatedAt": "2026-02-24T19:25:56.302118"
  },
  {
    "id": "osm_12097396160",
    "name": "POI sans nom",
    "lat": 49.9033895,
    "lng": 3.2084838,
    "location": {
      "_latitude": 49.9033895,
      "_longitude": 3.2084838
    },
    "description": "Point d'intérêt: POI sans nom",
    "category": "culture",
    "categoryGroup": "Culture",
    "categoryItem": "artwork",
    "city": "Aisne",
    "departmentCode": "02",
    "imageUrls": [],
    "images": [],
    "websiteUrl": null,
    "website": null,
    "source": "openstreetmap",
    "osmId": 12097396160,
    "isPublic": true,
    "isValidated": true,
    "isFree": null,
    "pmrAccessible": false,
    "kidsFriendly": null,
    "createdAt": {
      "_seconds": 1771957556,
      "_nanoseconds": 0
    },
    "updatedAt": "2026-02-24T19:25:56.302131"
  },
  {
    "id": "osm_12461100471",
    "name": "POI sans nom",
    "lat": 49.8981053,
    "lng": 3.3667818,
    "location": {
      "_latitude": 49.8981053,
      "_longitude": 3.3667818
    },
    "description": "Point d'intérêt: POI sans nom",
    "category": "culture",
    "categoryGroup": "Culture",
    "categoryItem": "artwork",
    "city": "Aisne",
    "departmentCode": "02",
    "imageUrls": [],
    "images": [],
    "websiteUrl": null,
    "website": null,
    "source": "openstreetmap",
    "osmId": 12461100471,
    "isPublic": true,
    "isValidated": true,
    "isFree": null,
    "pmrAccessible": false,
    "kidsFriendly": null,
    "createdAt": {
      "_seconds": 1771957556,
      "_nanoseconds": 0
    },
    "updatedAt": "2026-02-24T19:25:56.302145"
  },
  {
    "id": "osm_12517726244",
    "name": "Le 115",
    "lat": 49.8431081,
    "lng": 3.2933927,
    "location": {
      "_latitude": 49.8431081,
      "_longitude": 3.2933927
    },
    "description": "Point d'intérêt: Le 115",
    "category": "culture",
    "categoryGroup": "Culture",
    "categoryItem": "gallery",
    "city": "Aisne",
    "departmentCode": "02",
    "imageUrls": [],
    "images": [],
    "websiteUrl": null,
    "website": null,
    "source": "openstreetmap",
    "osmId": 12517726244,
    "isPublic": true,
    "isValidated": true,
    "isFree": null,
    "pmrAccessible": false,
    "kidsFriendly": null,
    "createdAt": {
      "_seconds": 1771957556,
      "_nanoseconds": 0
    },
    "updatedAt": "2026-02-24T19:25:56.302158"
  },
  {
    "id": "osm_2316864222",
    "name": "Mont de Rignat",
    "lat": 46.1513882,
    "lng": 5.3498532,
    "location": {
      "_latitude": 46.1513882,
      "_longitude": 5.3498532
    },
    "description": "Point d'intérêt: Mont de Rignat",
    "category": "nature",
    "categoryGroup": "Nature",
    "categoryItem": "viewpoint",
    "city": "Ain",
    "departmentCode": "01",
    "imageUrls": [],
    "images": [],
    "websiteUrl": null,
    "website": null,
    "source": "openstreetmap",
    "osmId": 2316864222,
    "isPublic": true,
    "isValidated": true,
    "isFree": null,
    "pmrAccessible": false,
    "kidsFriendly": null,
    "createdAt": {
      "_seconds": 1771957558,
      "_nanoseconds": 0
    },
    "updatedAt": "2026-02-24T19:25:58.414955"
  },
  {
    "id": "osm_7361715885",
    "name": "Parc Balland",
    "lat": 46.2448816,
    "lng": 5.3508571,
    "location": {
      "_latitude": 46.2448816,
      "_longitude": 5.3508571
    },
    "description": "Point d'intérêt: Parc Balland",
    "category": "nature",
    "categoryGroup": "Nature",
    "categoryItem": "other",
    "city": "Ain",
    "departmentCode": "01",
    "imageUrls": [],
    "images": [],
    "websiteUrl": null,
    "website": null,
    "source": "openstreetmap",
    "osmId": 7361715885,
    "isPublic": true,
    "isValidated": true,
    "isFree": null,
    "pmrAccessible": false,
    "kidsFriendly": null,
    "createdAt": {
      "_seconds": 1771957558,
      "_nanoseconds": 0
    },
    "updatedAt": "2026-02-24T19:25:58.415008"
  },
  {
    "id": "osm_9775013297",
    "name": "POI sans nom",
    "lat": 46.1256002,
    "lng": 5.3445083,
    "location": {
      "_latitude": 46.1256002,
      "_longitude": 5.3445083
    },
    "description": "Point d'intérêt: POI sans nom",
    "category": "nature",
    "categoryGroup": "Nature",
    "categoryItem": "viewpoint",
    "city": "Ain",
    "departmentCode": "01",
    "imageUrls": [],
    "images": [],
    "websiteUrl": null,
    "website": null,
    "source": "openstreetmap",
    "osmId": 9775013297,
    "isPublic": true,
    "isValidated": true,
    "isFree": null,
    "pmrAccessible": false,
    "kidsFriendly": null,
    "createdAt": {
      "_seconds": 1771957558,
      "_nanoseconds": 0
    },
    "updatedAt": "2026-02-24T19:25:58.415024"
  },
  {
    "id": "osm_10918340375",
    "name": "POI sans nom",
    "lat": 46.1771836,
    "lng": 5.3214666,
    "location": {
      "_latitude": 46.1771836,
      "_longitude": 5.3214666
    },
    "description": "Point d'intérêt: POI sans nom",
    "category": "nature",
    "categoryGroup": "Nature",
    "categoryItem": "viewpoint",
    "city": "Ain",
    "departmentCode": "01",
    "imageUrls": [],
    "images": [],
    "websiteUrl": null,
    "website": null,
    "source": "openstreetmap",
    "osmId": 10918340375,
    "isPublic": true,
    "isValidated": true,
    "isFree": null,
    "pmrAccessible": false,
    "kidsFriendly": null,
    "createdAt": {
      "_seconds": 1771957558,
      "_nanoseconds": 0
    },
    "updatedAt": "2026-02-24T19:25:58.415039"
  },
  {
    "id": "osm_11176518661",
    "name": "Jardin de la providence",
    "lat": 46.195704,
    "lng": 5.2489107,
    "location": {
      "_latitude": 46.195704,
      "_longitude": 5.2489107
    },
    "description": "Point d'intérêt: Jardin de la providence",
    "category": "nature",
    "categoryGroup": "Nature",
    "categoryItem": "other",
    "city": "Ain",
    "departmentCode": "01",
    "imageUrls": [],
    "images": [],
    "websiteUrl": null,
    "website": null,
    "source": "openstreetmap",
    "osmId": 11176518661,
    "isPublic": true,
    "isValidated": true,
    "isFree": null,
    "pmrAccessible": false,
    "kidsFriendly": null,
    "createdAt": {
      "_seconds": 1771957558,
      "_nanoseconds": 0
    },
    "updatedAt": "2026-02-24T19:25:58.415057"
  },
  {
    "id": "osm_12535876356",
    "name": "POI sans nom",
    "lat": 46.205271,
    "lng": 5.3420494,
    "location": {
      "_latitude": 46.205271,
      "_longitude": 5.3420494
    },
    "description": "Point d'intérêt: POI sans nom",
    "category": "nature",
    "categoryGroup": "Nature",
    "categoryItem": "viewpoint",
    "city": "Ain",
    "departmentCode": "01",
    "imageUrls": [],
    "images": [],
    "websiteUrl": null,
    "website": null,
    "source": "openstreetmap",
    "osmId": 12535876356,
    "isPublic": true,
    "isValidated": true,
    "isFree": null,
    "pmrAccessible": false,
    "kidsFriendly": null,
    "createdAt": {
      "_seconds": 1771957558,
      "_nanoseconds": 0
    },
    "updatedAt": "2026-02-24T19:25:58.415071"
  },
  {
    "id": "osm_10579295931",
    "name": "BLACK TIGER AIRSOFT",
    "lat": 49.7605836,
    "lng": 3.3121573,
    "location": {
      "_latitude": 49.7605836,
      "_longitude": 3.3121573
    },
    "description": "Association d'airsoft à benay sous loi 1901",
    "category": "nature",
    "categoryGroup": "Nature",
    "categoryItem": "other",
    "city": "Aisne",
    "departmentCode": "02",
    "imageUrls": [],
    "images": [],
    "websiteUrl": null,
    "website": null,
    "source": "openstreetmap",
    "osmId": 10579295931,
    "isPublic": true,
    "isValidated": true,
    "isFree": null,
    "pmrAccessible": false,
    "kidsFriendly": null,
    "createdAt": {
      "_seconds": 1771957577,
      "_nanoseconds": 0
    },
    "updatedAt": "2026-02-24T19:26:17.564884"
  },
  {
    "id": "osm_520631048",
    "name": "Auberge bressane de Buellas",
    "lat": 46.2094437,
    "lng": 5.1329706,
    "location": {
      "_latitude": 46.2094437,
      "_longitude": 5.1329706
    },
    "description": "Point d'intérêt: Auberge bressane de Buellas",
    "category": "experienceGustative",
    "categoryGroup": "Experience gustative",
    "categoryItem": "restaurant",
    "city": "Ain",
    "departmentCode": "01",
    "imageUrls": [],
    "images": [],
    "websiteUrl": "https://www.auberge-buellas.com/",
    "website": "https://www.auberge-buellas.com/",
    "source": "openstreetmap",
    "osmId": 520631048,
    "isPublic": true,
    "isValidated": true,
    "isFree": null,
    "pmrAccessible": false,
    "kidsFriendly": null,
    "createdAt": {
      "_seconds": 1771957591,
      "_nanoseconds": 0
    },
    "updatedAt": "2026-02-24T19:26:31.115807"
  },
  {
    "id": "osm_522092165",
    "name": "POI sans nom",
    "lat": 46.1968004,
    "lng": 5.1593879,
    "location": {
      "_latitude": 46.1968004,
      "_longitude": 5.1593879
    },
    "description": "Point d'intérêt: POI sans nom",
    "category": "experienceGustative",
    "categoryGroup": "Experience gustative",
    "categoryItem": "bakery",
    "city": "Ain",
    "departmentCode": "01",
    "imageUrls": [],
    "images": [],
    "websiteUrl": null,
    "website": null,
    "source": "openstreetmap",
    "osmId": 522092165,
    "isPublic": true,
    "isValidated": true,
    "isFree": null,
    "pmrAccessible": false,
    "kidsFriendly": null,
    "createdAt": {
      "_seconds": 1771957591,
      "_nanoseconds": 0
    },
    "updatedAt": "2026-02-24T19:26:31.115819"
  },
  {
    "id": "osm_624030534",
    "name": "Le Frometon",
    "lat": 46.1975933,
    "lng": 5.1227776,
    "location": {
      "_latitude": 46.1975933,
      "_longitude": 5.1227776
    },
    "description": "Point d'intérêt: Le Frometon",
    "category": "experienceGustative",
    "categoryGroup": "Experience gustative",
    "categoryItem": "restaurant",
    "city": "Ain",
    "departmentCode": "01",
    "imageUrls": [],
    "images": [],
    "websiteUrl": null,
    "website": null,
    "source": "openstreetmap",
    "osmId": 624030534,
    "isPublic": true,
    "isValidated": true,
    "isFree": null,
    "pmrAccessible": false,
    "kidsFriendly": null,
    "createdAt": {
      "_seconds": 1771957591,
      "_nanoseconds": 0
    },
    "updatedAt": "2026-02-24T19:26:31.115823"
  },
  {
    "id": "osm_892859377",
    "name": "Felicità",
    "lat": 46.212194,
    "lng": 5.3253389,
    "location": {
      "_latitude": 46.212194,
      "_longitude": 5.3253389
    },
    "description": "Point d'intérêt: Felicità",
    "category": "experienceGustative",
    "categoryGroup": "Experience gustative",
    "categoryItem": "restaurant",
    "city": "Ain",
    "departmentCode": "01",
    "imageUrls": [],
    "images": [],
    "websiteUrl": null,
    "website": null,
    "source": "openstreetmap",
    "osmId": 892859377,
    "isPublic": true,
    "isValidated": true,
    "isFree": null,
    "pmrAccessible": false,
    "kidsFriendly": null,
    "createdAt": {
      "_seconds": 1771957591,
      "_nanoseconds": 0
    },
    "updatedAt": "2026-02-24T19:26:31.115826"
  },
  {
    "id": "osm_1367597003",
    "name": "Le Bistrot",
    "lat": 46.1935179,
    "lng": 5.2134668,
    "location": {
      "_latitude": 46.1935179,
      "_longitude": 5.2134668
    },
    "description": "Website invalide (http://www.lebistrot01.com)",
    "category": "experienceGustative",
    "categoryGroup": "Experience gustative",
    "categoryItem": "restaurant",
    "city": "Ain",
    "departmentCode": "01",
    "imageUrls": [],
    "images": [],
    "websiteUrl": null,
    "website": null,
    "source": "openstreetmap",
    "osmId": 1367597003,
    "isPublic": true,
    "isValidated": true,
    "isFree": null,
    "pmrAccessible": false,
    "kidsFriendly": null,
    "createdAt": {
      "_seconds": 1771957591,
      "_nanoseconds": 0
    },
    "updatedAt": "2026-02-24T19:26:31.115830"
  },
  {
    "id": "osm_1367597004",
    "name": "POI sans nom",
    "lat": 46.1932596,
    "lng": 5.2131506,
    "location": {
      "_latitude": 46.1932596,
      "_longitude": 5.2131506
    },
    "description": "Point d'intérêt: POI sans nom",
    "category": "experienceGustative",
    "categoryGroup": "Experience gustative",
    "categoryItem": "bakery",
    "city": "Ain",
    "departmentCode": "01",
    "imageUrls": [],
    "images": [],
    "websiteUrl": null,
    "website": null,
    "source": "openstreetmap",
    "osmId": 1367597004,
    "isPublic": true,
    "isValidated": true,
    "isFree": null,
    "pmrAccessible": false,
    "kidsFriendly": null,
    "createdAt": {
      "_seconds": 1771957591,
      "_nanoseconds": 0
    },
    "updatedAt": "2026-02-24T19:26:31.115834"
  },
  {
    "id": "osm_1514557505",
    "name": "Aux saveurs d'enfance",
    "lat": 46.2125229,
    "lng": 5.1120444,
    "location": {
      "_latitude": 46.2125229,
      "_longitude": 5.1120444
    },
    "description": "Point d'intérêt: Aux saveurs d'enfance",
    "category": "experienceGustative",
    "categoryGroup": "Experience gustative",
    "categoryItem": "bakery",
    "city": "Ain",
    "departmentCode": "01",
    "imageUrls": [],
    "images": [],
    "websiteUrl": null,
    "website": null,
    "source": "openstreetmap",
    "osmId": 1514557505,
    "isPublic": true,
    "isValidated": true,
    "isFree": null,
    "pmrAccessible": false,
    "kidsFriendly": null,
    "createdAt": {
      "_seconds": 1771957591,
      "_nanoseconds": 0
    },
    "updatedAt": "2026-02-24T19:26:31.115837"
  },
  {
    "id": "osm_1941157569",
    "name": "POI sans nom",
    "lat": 46.178836,
    "lng": 5.3238415,
    "location": {
      "_latitude": 46.178836,
      "_longitude": 5.3238415
    },
    "description": "Point d'intérêt: POI sans nom",
    "category": "experienceGustative",
    "categoryGroup": "Experience gustative",
    "categoryItem": "bakery",
    "city": "Ain",
    "departmentCode": "01",
    "imageUrls": [],
    "images": [],
    "websiteUrl": null,
    "website": null,
    "source": "openstreetmap",
    "osmId": 1941157569,
    "isPublic": true,
    "isValidated": true,
    "isFree": null,
    "pmrAccessible": false,
    "kidsFriendly": null,
    "createdAt": {
      "_seconds": 1771957591,
      "_nanoseconds": 0
    },
    "updatedAt": "2026-02-24T19:26:31.115840"
  },
  {
    "id": "osm_1941157571",
    "name": "POI sans nom",
    "lat": 46.1788686,
    "lng": 5.3245009,
    "location": {
      "_latitude": 46.1788686,
      "_longitude": 5.3245009
    },
    "description": "Point d'intérêt: POI sans nom",
    "category": "experienceGustative",
    "categoryGroup": "Experience gustative",
    "categoryItem": "bakery",
    "city": "Ain",
    "departmentCode": "01",
    "imageUrls": [],
    "images": [],
    "websiteUrl": null,
    "website": null,
    "source": "openstreetmap",
    "osmId": 1941157571,
    "isPublic": true,
    "isValidated": true,
    "isFree": null,
    "pmrAccessible": false,
    "kidsFriendly": null,
    "createdAt": {
      "_seconds": 1771957591,
      "_nanoseconds": 0
    },
    "updatedAt": "2026-02-24T19:26:31.115843"
  },
  {
    "id": "osm_1958664807",
    "name": "Au Vieux Meillonnas",
    "lat": 46.2431303,
    "lng": 5.3496371,
    "location": {
      "_latitude": 46.2431303,
      "_longitude": 5.3496371
    },
    "description": "Point d'intérêt: Au Vieux Meillonnas",
    "category": "experienceGustative",
    "categoryGroup": "Experience gustative",
    "categoryItem": "restaurant",
    "city": "Ain",
    "departmentCode": "01",
    "imageUrls": [],
    "images": [],
    "websiteUrl": null,
    "website": null,
    "source": "openstreetmap",
    "osmId": 1958664807,
    "isPublic": true,
    "isValidated": true,
    "isFree": null,
    "pmrAccessible": false,
    "kidsFriendly": null,
    "createdAt": {
      "_seconds": 1771957591,
      "_nanoseconds": 0
    },
    "updatedAt": "2026-02-24T19:26:31.115846"
  },
  {
    "id": "osm_1958664811",
    "name": "Le Revermont",
    "lat": 46.2456086,
    "lng": 5.3512895,
    "location": {
      "_latitude": 46.2456086,
      "_longitude": 5.3512895
    },
    "description": "Point d'intérêt: Le Revermont",
    "category": "experienceGustative",
    "categoryGroup": "Experience gustative",
    "categoryItem": "restaurant",
    "city": "Ain",
    "departmentCode": "01",
    "imageUrls": [],
    "images": [],
    "websiteUrl": null,
    "website": null,
    "source": "openstreetmap",
    "osmId": 1958664811,
    "isPublic": true,
    "isValidated": true,
    "isFree": null,
    "pmrAccessible": false,
    "kidsFriendly": null,
    "createdAt": {
      "_seconds": 1771957591,
      "_nanoseconds": 0
    },
    "updatedAt": "2026-02-24T19:26:31.115849"
  },
  {
    "id": "osm_1958664833",
    "name": "POI sans nom",
    "lat": 46.2454751,
    "lng": 5.3511617,
    "location": {
      "_latitude": 46.2454751,
      "_longitude": 5.3511617
    },
    "description": "Point d'intérêt: POI sans nom",
    "category": "experienceGustative",
    "categoryGroup": "Experience gustative",
    "categoryItem": "bakery",
    "city": "Ain",
    "departmentCode": "01",
    "imageUrls": [],
    "images": [],
    "websiteUrl": null,
    "website": null,
    "source": "openstreetmap",
    "osmId": 1958664833,
    "isPublic": true,
    "isValidated": true,
    "isFree": null,
    "pmrAccessible": false,
    "kidsFriendly": null,
    "createdAt": {
      "_seconds": 1771957591,
      "_nanoseconds": 0
    },
    "updatedAt": "2026-02-24T19:26:31.115855"
  },
  {
    "id": "osm_1958855401",
    "name": "La Fournée du Jugnon",
    "lat": 46.212145,
    "lng": 5.3258241,
    "location": {
      "_latitude": 46.212145,
      "_longitude": 5.3258241
    },
    "description": "Point d'intérêt: La Fournée du Jugnon",
    "category": "experienceGustative",
    "categoryGroup": "Experience gustative",
    "categoryItem": "bakery",
    "city": "Ain",
    "departmentCode": "01",
    "imageUrls": [],
    "images": [],
    "websiteUrl": null,
    "website": null,
    "source": "openstreetmap",
    "osmId": 1958855401,
    "isPublic": true,
    "isValidated": true,
    "isFree": null,
    "pmrAccessible": false,
    "kidsFriendly": null,
    "createdAt": {
      "_seconds": 1771957591,
      "_nanoseconds": 0
    },
    "updatedAt": "2026-02-24T19:26:31.115858"
  },
  {
    "id": "osm_2100481890",
    "name": "Le Verchère",
    "lat": 46.2092213,
    "lng": 5.2380462,
    "location": {
      "_latitude": 46.2092213,
      "_longitude": 5.2380462
    },
    "description": "Point d'intérêt: Le Verchère",
    "category": "experienceGustative",
    "categoryGroup": "Experience gustative",
    "categoryItem": "restaurant",
    "city": "Ain",
    "departmentCode": "01",
    "imageUrls": [],
    "images": [],
    "websiteUrl": null,
    "website": null,
    "source": "openstreetmap",
    "osmId": 2100481890,
    "isPublic": true,
    "isValidated": true,
    "isFree": null,
    "pmrAccessible": false,
    "kidsFriendly": null,
    "createdAt": {
      "_seconds": 1771957591,
      "_nanoseconds": 0
    },
    "updatedAt": "2026-02-24T19:26:31.115861"
  },
  {
    "id": "osm_2238967708",
    "name": "À la source",
    "lat": 46.1443178,
    "lng": 5.3313044,
    "location": {
      "_latitude": 46.1443178,
      "_longitude": 5.3313044
    },
    "description": "Point d'intérêt: À la source",
    "category": "experienceGustative",
    "categoryGroup": "Experience gustative",
    "categoryItem": "restaurant",
    "city": "Ain",
    "departmentCode": "01",
    "imageUrls": [],
    "images": [],
    "websiteUrl": null,
    "website": null,
    "source": "openstreetmap",
    "osmId": 2238967708,
    "isPublic": true,
    "isValidated": true,
    "isFree": null,
    "pmrAccessible": false,
    "kidsFriendly": null,
    "createdAt": {
      "_seconds": 1771957591,
      "_nanoseconds": 0
    },
    "updatedAt": "2026-02-24T19:26:31.115864"
  },
  {
    "id": "osm_2239005976",
    "name": "Boulangerie Patisserie",
    "lat": 46.1419743,
    "lng": 5.3164475,
    "location": {
      "_latitude": 46.1419743,
      "_longitude": 5.3164475
    },
    "description": "Point d'intérêt: Boulangerie Patisserie",
    "category": "experienceGustative",
    "categoryGroup": "Experience gustative",
    "categoryItem": "bakery",
    "city": "Ain",
    "departmentCode": "01",
    "imageUrls": [],
    "images": [],
    "websiteUrl": null,
    "website": null,
    "source": "openstreetmap",
    "osmId": 2239005976,
    "isPublic": true,
    "isValidated": true,
    "isFree": null,
    "pmrAccessible": false,
    "kidsFriendly": null,
    "createdAt": {
      "_seconds": 1771957591,
      "_nanoseconds": 0
    },
    "updatedAt": "2026-02-24T19:26:31.115868"
  },
  {
    "id": "osm_2239091732",
    "name": "Au bon fournil",
    "lat": 46.1355902,
    "lng": 5.2907814,
    "location": {
      "_latitude": 46.1355902,
      "_longitude": 5.2907814
    },
    "description": "Point d'intérêt: Au bon fournil",
    "category": "experienceGustative",
    "categoryGroup": "Experience gustative",
    "categoryItem": "bakery",
    "city": "Ain",
    "departmentCode": "01",
    "imageUrls": [],
    "images": [],
    "websiteUrl": null,
    "website": null,
    "source": "openstreetmap",
    "osmId": 2239091732,
    "isPublic": true,
    "isValidated": true,
    "isFree": null,
    "pmrAccessible": false,
    "kidsFriendly": null,
    "createdAt": {
      "_seconds": 1771957591,
      "_nanoseconds": 0
    },
    "updatedAt": "2026-02-24T19:26:31.115871"
  },
  {
    "id": "osm_2242788338",
    "name": "Grain d'Pain",
    "lat": 46.2001825,
    "lng": 5.2527463,
    "location": {
      "_latitude": 46.2001825,
      "_longitude": 5.2527463
    },
    "description": "Point d'intérêt: Grain d'Pain",
    "category": "experienceGustative",
    "categoryGroup": "Experience gustative",
    "categoryItem": "bakery",
    "city": "Ain",
    "departmentCode": "01",
    "imageUrls": [],
    "images": [],
    "websiteUrl": "https://www.graindpain.com/",
    "website": "https://www.graindpain.com/",
    "source": "openstreetmap",
    "osmId": 2242788338,
    "isPublic": true,
    "isValidated": true,
    "isFree": null,
    "pmrAccessible": false,
    "kidsFriendly": null,
    "createdAt": {
      "_seconds": 1771957591,
      "_nanoseconds": 0
    },
    "updatedAt": "2026-02-24T19:26:31.115874"
  },
  {
    "id": "osm_2302460555",
    "name": "Pizza & Pasta",
    "lat": 46.2143592,
    "lng": 5.2139666,
    "location": {
      "_latitude": 46.2143592,
      "_longitude": 5.2139666
    },
    "description": "Point d'intérêt: Pizza & Pasta",
    "category": "experienceGustative",
    "categoryGroup": "Experience gustative",
    "categoryItem": "restaurant",
    "city": "Ain",
    "departmentCode": "01",
    "imageUrls": [],
    "images": [],
    "websiteUrl": "http://www.restaurant-pizza-pasta-bourg.fr",
    "website": "http://www.restaurant-pizza-pasta-bourg.fr",
    "source": "openstreetmap",
    "osmId": 2302460555,
    "isPublic": true,
    "isValidated": true,
    "isFree": null,
    "pmrAccessible": false,
    "kidsFriendly": null,
    "createdAt": {
      "_seconds": 1771957591,
      "_nanoseconds": 0
    },
    "updatedAt": "2026-02-24T19:26:31.115879"
  },
  {
    "id": "osm_2435123648",
    "name": "Boulangerie, Sandwicherie",
    "lat": 46.2241674,
    "lng": 5.2027797,
    "location": {
      "_latitude": 46.2241674,
      "_longitude": 5.2027797
    },
    "description": "Point d'intérêt: Boulangerie, Sandwicherie",
    "category": "experienceGustative",
    "categoryGroup": "Experience gustative",
    "categoryItem": "bakery",
    "city": "Ain",
    "departmentCode": "01",
    "imageUrls": [],
    "images": [],
    "websiteUrl": null,
    "website": null,
    "source": "openstreetmap",
    "osmId": 2435123648,
    "isPublic": true,
    "isValidated": true,
    "isFree": null,
    "pmrAccessible": false,
    "kidsFriendly": null,
    "createdAt": {
      "_seconds": 1771957591,
      "_nanoseconds": 0
    },
    "updatedAt": "2026-02-24T19:26:31.115882"
  },
  {
    "id": "osm_2458382342",
    "name": "Le Français",
    "lat": 46.2045441,
    "lng": 5.225087,
    "location": {
      "_latitude": 46.2045441,
      "_longitude": 5.225087
    },
    "description": "Point d'intérêt: Le Français",
    "category": "experienceGustative",
    "categoryGroup": "Experience gustative",
    "categoryItem": "restaurant",
    "city": "Ain",
    "departmentCode": "01",
    "imageUrls": [
      "https://www.wikidata.org/wiki/Q15952063"
    ],
    "images": [
      "https://www.wikidata.org/wiki/Q15952063"
    ],
    "websiteUrl": null,
    "website": null,
    "source": "openstreetmap",
    "osmId": 2458382342,
    "isPublic": true,
    "isValidated": true,
    "isFree": null,
    "pmrAccessible": false,
    "kidsFriendly": null,
    "createdAt": {
      "_seconds": 1771957591,
      "_nanoseconds": 0
    },
    "updatedAt": "2026-02-24T19:26:31.115889"
  },
  {
    "id": "osm_2611792991",
    "name": "Le Peloux",
    "lat": 46.200126,
    "lng": 5.213384,
    "location": {
      "_latitude": 46.200126,
      "_longitude": 5.213384
    },
    "description": "Point d'intérêt: Le Peloux",
    "category": "experienceGustative",
    "categoryGroup": "Experience gustative",
    "categoryItem": "restaurant",
    "city": "Ain",
    "departmentCode": "01",
    "imageUrls": [],
    "images": [],
    "websiteUrl": "https://www.pizza-peloux.fr/",
    "website": "https://www.pizza-peloux.fr/",
    "source": "openstreetmap",
    "osmId": 2611792991,
    "isPublic": true,
    "isValidated": true,
    "isFree": null,
    "pmrAccessible": false,
    "kidsFriendly": null,
    "createdAt": {
      "_seconds": 1771957591,
      "_nanoseconds": 0
    },
    "updatedAt": "2026-02-24T19:26:31.115892"
  },
  {
    "id": "osm_2640873983",
    "name": "Restaurant La Maison des Pays de l'Ain",
    "lat": 46.2836021,
    "lng": 5.2889021,
    "location": {
      "_latitude": 46.2836021,
      "_longitude": 5.2889021
    },
    "description": "Point d'intérêt: Restaurant La Maison des Pays de l'Ain",
    "category": "experienceGustative",
    "categoryGroup": "Experience gustative",
    "categoryItem": "restaurant",
    "city": "Ain",
    "departmentCode": "01",
    "imageUrls": [],
    "images": [],
    "websiteUrl": null,
    "website": null,
    "source": "openstreetmap",
    "osmId": 2640873983,
    "isPublic": true,
    "isValidated": true,
    "isFree": null,
    "pmrAccessible": false,
    "kidsFriendly": null,
    "createdAt": {
      "_seconds": 1771957591,
      "_nanoseconds": 0
    },
    "updatedAt": "2026-02-24T19:26:31.115895"
  },
  {
    "id": "osm_2663380029",
    "name": "Menu du Jour",
    "lat": 46.2864364,
    "lng": 5.2930357,
    "location": {
      "_latitude": 46.2864364,
      "_longitude": 5.2930357
    },
    "description": "Point d'intérêt: Menu du Jour",
    "category": "experienceGustative",
    "categoryGroup": "Experience gustative",
    "categoryItem": "restaurant",
    "city": "Ain",
    "departmentCode": "01",
    "imageUrls": [],
    "images": [],
    "websiteUrl": null,
    "website": null,
    "source": "openstreetmap",
    "osmId": 2663380029,
    "isPublic": true,
    "isValidated": true,
    "isFree": null,
    "pmrAccessible": false,
    "kidsFriendly": null,
    "createdAt": {
      "_seconds": 1771957591,
      "_nanoseconds": 0
    },
    "updatedAt": "2026-02-24T19:26:31.115899"
  },
  {
    "id": "osm_2663380030",
    "name": "Pizza Originale",
    "lat": 46.2871543,
    "lng": 5.2932167,
    "location": {
      "_latitude": 46.2871543,
      "_longitude": 5.2932167
    },
    "description": "Point d'intérêt: Pizza Originale",
    "category": "experienceGustative",
    "categoryGroup": "Experience gustative",
    "categoryItem": "restaurant",
    "city": "Ain",
    "departmentCode": "01",
    "imageUrls": [],
    "images": [],
    "websiteUrl": null,
    "website": null,
    "source": "openstreetmap",
    "osmId": 2663380030,
    "isPublic": true,
    "isValidated": true,
    "isFree": null,
    "pmrAccessible": false,
    "kidsFriendly": null,
    "createdAt": {
      "_seconds": 1771957591,
      "_nanoseconds": 0
    },
    "updatedAt": "2026-02-24T19:26:31.115902"
  },
  {
    "id": "osm_2663380031",
    "name": "Restaurant du Midi",
    "lat": 46.2869745,
    "lng": 5.2933788,
    "location": {
      "_latitude": 46.2869745,
      "_longitude": 5.2933788
    },
    "description": "Point d'intérêt: Restaurant du Midi",
    "category": "experienceGustative",
    "categoryGroup": "Experience gustative",
    "categoryItem": "restaurant",
    "city": "Ain",
    "departmentCode": "01",
    "imageUrls": [],
    "images": [],
    "websiteUrl": null,
    "website": null,
    "source": "openstreetmap",
    "osmId": 2663380031,
    "isPublic": true,
    "isValidated": true,
    "isFree": null,
    "pmrAccessible": false,
    "kidsFriendly": null,
    "createdAt": {
      "_seconds": 1771957591,
      "_nanoseconds": 0
    },
    "updatedAt": "2026-02-24T19:26:31.115905"
  },
  {
    "id": "osm_2663380042",
    "name": "POI sans nom",
    "lat": 46.2870948,
    "lng": 5.293505,
    "location": {
      "_latitude": 46.2870948,
      "_longitude": 5.293505
    },
    "description": "Point d'intérêt: POI sans nom",
    "category": "experienceGustative",
    "categoryGroup": "Experience gustative",
    "categoryItem": "bakery",
    "city": "Ain",
    "departmentCode": "01",
    "imageUrls": [],
    "images": [],
    "websiteUrl": null,
    "website": null,
    "source": "openstreetmap",
    "osmId": 2663380042,
    "isPublic": true,
    "isValidated": true,
    "isFree": null,
    "pmrAccessible": false,
    "kidsFriendly": null,
    "createdAt": {
      "_seconds": 1771957591,
      "_nanoseconds": 0
    },
    "updatedAt": "2026-02-24T19:26:31.115908"
  },
  {
    "id": "osm_2663779805",
    "name": "La Chaupinette",
    "lat": 46.2878164,
    "lng": 5.2941481,
    "location": {
      "_latitude": 46.2878164,
      "_longitude": 5.2941481
    },
    "description": "Point d'intérêt: La Chaupinette",
    "category": "experienceGustative",
    "categoryGroup": "Experience gustative",
    "categoryItem": "bakery",
    "city": "Ain",
    "departmentCode": "01",
    "imageUrls": [],
    "images": [],
    "websiteUrl": null,
    "website": null,
    "source": "openstreetmap",
    "osmId": 2663779805,
    "isPublic": true,
    "isValidated": true,
    "isFree": null,
    "pmrAccessible": false,
    "kidsFriendly": null,
    "createdAt": {
      "_seconds": 1771957591,
      "_nanoseconds": 0
    },
    "updatedAt": "2026-02-24T19:26:31.115911"
  },
  {
    "id": "osm_2764026182",
    "name": "Alain Charolles Traiteur",
    "lat": 46.2481125,
    "lng": 5.1266297,
    "location": {
      "_latitude": 46.2481125,
      "_longitude": 5.1266297
    },
    "description": "Point d'intérêt: Alain Charolles Traiteur",
    "category": "experienceGustative",
    "categoryGroup": "Experience gustative",
    "categoryItem": "restaurant",
    "city": "Ain",
    "departmentCode": "01",
    "imageUrls": [],
    "images": [],
    "websiteUrl": null,
    "website": null,
    "source": "openstreetmap",
    "osmId": 2764026182,
    "isPublic": true,
    "isValidated": true,
    "isFree": null,
    "pmrAccessible": false,
    "kidsFriendly": null,
    "createdAt": {
      "_seconds": 1771957591,
      "_nanoseconds": 0
    },
    "updatedAt": "2026-02-24T19:26:31.115914"
  },
  {
    "id": "osm_3049451149",
    "name": "Le Certinois",
    "lat": 46.1328749,
    "lng": 5.2643855,
    "location": {
      "_latitude": 46.1328749,
      "_longitude": 5.2643855
    },
    "description": "Point d'intérêt: Le Certinois",
    "category": "experienceGustative",
    "categoryGroup": "Experience gustative",
    "categoryItem": "restaurant",
    "city": "Ain",
    "departmentCode": "01",
    "imageUrls": [],
    "images": [],
    "websiteUrl": null,
    "website": null,
    "source": "openstreetmap",
    "osmId": 3049451149,
    "isPublic": true,
    "isValidated": true,
    "isFree": null,
    "pmrAccessible": true,
    "kidsFriendly": null,
    "createdAt": {
      "_seconds": 1771957591,
      "_nanoseconds": 0
    },
    "updatedAt": "2026-02-24T19:26:31.115917"
  },
  {
    "id": "osm_3050789591",
    "name": "Boulangerie Marie",
    "lat": 46.215997,
    "lng": 5.2122333,
    "location": {
      "_latitude": 46.215997,
      "_longitude": 5.2122333
    },
    "description": "Point d'intérêt: Boulangerie Marie",
    "category": "experienceGustative",
    "categoryGroup": "Experience gustative",
    "categoryItem": "bakery",
    "city": "Ain",
    "departmentCode": "01",
    "imageUrls": [],
    "images": [],
    "websiteUrl": null,
    "website": null,
    "source": "openstreetmap",
    "osmId": 3050789591,
    "isPublic": true,
    "isValidated": true,
    "isFree": null,
    "pmrAccessible": false,
    "kidsFriendly": null,
    "createdAt": {
      "_seconds": 1771957591,
      "_nanoseconds": 0
    },
    "updatedAt": "2026-02-24T19:26:31.115920"
  },
  {
    "id": "osm_3050790176",
    "name": "Nöl",
    "lat": 46.2149468,
    "lng": 5.2156335,
    "location": {
      "_latitude": 46.2149468,
      "_longitude": 5.2156335
    },
    "description": "Point d'intérêt: Nöl",
    "category": "experienceGustative",
    "categoryGroup": "Experience gustative",
    "categoryItem": "bakery",
    "city": "Ain",
    "departmentCode": "01",
    "imageUrls": [],
    "images": [],
    "websiteUrl": null,
    "website": null,
    "source": "openstreetmap",
    "osmId": 3050790176,
    "isPublic": true,
    "isValidated": true,
    "isFree": null,
    "pmrAccessible": false,
    "kidsFriendly": null,
    "createdAt": {
      "_seconds": 1771957591,
      "_nanoseconds": 0
    },
    "updatedAt": "2026-02-24T19:26:31.115923"
  },
  {
    "id": "osm_3066917437",
    "name": "Le Jasmin",
    "lat": 46.2137247,
    "lng": 5.2197026,
    "location": {
      "_latitude": 46.2137247,
      "_longitude": 5.2197026
    },