[
  {
    "id": "osm_1367597003",
    "name": "Le Bistrot",
    "lat": 46.1935179,
    "lng": 5.2134668,
    "location": {
      "_latitude": 46.1935179,
      "_longitude": 5.2134668
    },
    "description": "Website invalide (http://www.lebistrot01.com)",
    "category": "experienceGustative",
    "categoryGroup": "Experience gustative",
    "categoryItem": "restaurant",
    "city": "Ain",
    "departmentCode": "01",
    "imageUrls": [],
    "images": [],
    "websiteUrl": null,
    "website": null,
    "source": "openstreetmap",
    "osmId": 1367597003,
    "isPublic": true,
    "isValidated": true,
    "isFree": null,
    "pmrAccessible": false,
    "kidsFriendly": null,
    "createdAt": {
      "_seconds": 1771774806,
      "_nanoseconds": 0
    },
    "updatedAt": "2026-02-22T16:40:06.499927"
  },
  {
    "id": "osm_1367597004",
    "name": "POI sans nom",
    "lat": 46.1932596,
    "lng": 5.2131506,
    "location": {
      "_latitude": 46.1932596,
      "_longitude": 5.2131506
    },
    "description": "Point d'intérêt: POI sans nom",
    "category": "experienceGustative",
    "categoryGroup": "Experience gustative",
    "categoryItem": "bakery",
    "city": "Ain",
    "departmentCode": "01",
    "imageUrls": [],
    "images": [],
    "websiteUrl": null,
    "website": null,
    "source": "openstreetmap",
    "osmId": 1367597004,
    "isPublic": true,
    "isValidated": true,
    "isFree": null,
    "pmrAccessible": false,
    "kidsFriendly": null,
    "createdAt": {
      "_seconds": 1771774806,
      "_nanoseconds": 0
    },
    "updatedAt": "2026-02-22T16:40:06.499971"
  },
  {
    "id": "osm_2100481890",
    "name": "Le Verchère",
    "lat": 46.2092213,
    "lng": 5.2380462,
    "location": {
      "_latitude": 46.2092213,
      "_longitude": 5.2380462
    },
    "description": "Point d'intérêt: Le Verchère",
    "category": "experienceGustative",
    "categoryGroup": "Experience gustative",
    "categoryItem": "restaurant",
    "city": "Ain",
    "departmentCode": "01",
    "imageUrls": [],
    "images": [],
    "websiteUrl": null,
    "website": null,
    "source": "openstreetmap",
    "osmId": 2100481890,
    "isPublic": true,
    "isValidated": true,
    "isFree": null,
    "pmrAccessible": false,
    "kidsFriendly": null,
    "createdAt": {
      "_seconds": 1771774806,
      "_nanoseconds": 0
    },
    "updatedAt": "2026-02-22T16:40:06.499981"
  },
  {
    "id": "osm_2242788338",
    "name": "Grain d'Pain",
    "lat": 46.2001825,
    "lng": 5.2527463,
    "location": {
      "_latitude": 46.2001825,
      "_longitude": 5.2527463
    },
    "description": "Point d'intérêt: Grain d'Pain",
    "category": "experienceGustative",
    "categoryGroup": "Experience gustative",
    "categoryItem": "bakery",
    "city": "Ain",
    "departmentCode": "01",
    "imageUrls": [],
    "images": [],
    "websiteUrl": "https://www.graindpain.com/",
    "website": "https://www.graindpain.com/",
    "source": "openstreetmap",
    "osmId": 2242788338,
    "isPublic": true,
    "isValidated": true,
    "isFree": null,
    "pmrAccessible": false,
    "kidsFriendly": null,
    "createdAt": {
      "_seconds": 1771774806,
      "_nanoseconds": 0
    },
    "updatedAt": "2026-02-22T16:40:06.499990"
  },
  {
    "id": "osm_2302460555",
    "name": "Pizza & Pasta",
    "lat": 46.2143592,
    "lng": 5.2139666,
    "location": {
      "_latitude": 46.2143592,
      "_longitude": 5.2139666
    },
    "description": "Point d'intérêt: Pizza & Pasta",
    "category": "experienceGustative",
    "categoryGroup": "Experience gustative",
    "categoryItem": "restaurant",
    "city": "Ain",
    "departmentCode": "01",
    "imageUrls": [],
    "images": [],
    "websiteUrl": "http://www.restaurant-pizza-pasta-bourg.fr",
    "website": "http://www.restaurant-pizza-pasta-bourg.fr",
    "source": "openstreetmap",
    "osmId": 2302460555,
    "isPublic": true,
    "isValidated": true,
    "isFree": null,
    "pmrAccessible": false,
    "kidsFriendly": null,
    "createdAt": {
      "_seconds": 1771774806,
      "_nanoseconds": 0
    },
    "updatedAt": "2026-02-22T16:40:06.500000"
  },
  {
    "id": "osm_2435123648",
    "name": "Boulangerie, Sandwicherie",
    "lat": 46.2241674,
    "lng": 5.2027797,
    "location": {
      "_latitude": 46.2241674,
      "_longitude": 5.2027797
    },
    "description": "Point d'intérêt: Boulangerie, Sandwicherie",
    "category": "experienceGustative",
    "categoryGroup": "Experience gustative",
    "categoryItem": "bakery",
    "city": "Ain",
    "departmentCode": "01",
    "imageUrls": [],
    "images": [],
    "websiteUrl": null,
    "website": null,
    "source": "openstreetmap",
    "osmId": 2435123648,
    "isPublic": true,
    "isValidated": true,
    "isFree": null,
    "pmrAccessible": false,
    "kidsFriendly": null,
    "createdAt": {
      "_seconds": 1771774806,
      "_nanoseconds": 0
    },
    "updatedAt": "2026-02-22T16:40:06.500009"
  },
  {
    "id": "osm_2458382342",
    "name": "Le Français",
    "lat": 46.2045441,
    "lng": 5.225087,
    "location": {
      "_latitude": 46.2045441,
      "_longitude": 5.225087
    },
    "description": "Point d'intérêt: Le Français",
    "category": "experienceGustative",
    "categoryGroup": "Experience gustative",
    "categoryItem": "restaurant",
    "city": "Ain",
    "departmentCode": "01",
    "imageUrls": [],
    "images": [],
    "websiteUrl": null,
    "website": null,
    "source": "openstreetmap",
    "osmId": 2458382342,
    "isPublic": true,
    "isValidated": true,
    "isFree": null,
    "pmrAccessible": false,
    "kidsFriendly": null,
    "createdAt": {
      "_seconds": 1771774806,
      "_nanoseconds": 0
    },
    "updatedAt": "2026-02-22T16:40:06.500017"
  },
  {
    "id": "osm_2611792991",
    "name": "Le Peloux",
    "lat": 46.200126,
    "lng": 5.213384,
    "location": {
      "_latitude": 46.200126,
      "_longitude": 5.213384
    },
    "description": "Point d'intérêt: Le Peloux",
    "category": "experienceGustative",
    "categoryGroup": "Experience gustative",
    "categoryItem": "restaurant",
    "city": "Ain",
    "departmentCode": "01",
    "imageUrls": [],
    "images": [],
    "websiteUrl": "https://www.pizza-peloux.fr/",
    "website": "https://www.pizza-peloux.fr/",
    "source": "openstreetmap",
    "osmId": 2611792991,
    "isPublic": true,
    "isValidated": true,
    "isFree": null,
    "pmrAccessible": false,
    "kidsFriendly": null,
    "createdAt": {
      "_seconds": 1771774806,
      "_nanoseconds": 0
    },
    "updatedAt": "2026-02-22T16:40:06.500026"
  },
  {
    "id": "osm_3050789591",
    "name": "Boulangerie Marie",
    "lat": 46.215997,
    "lng": 5.2122333,
    "location": {
      "_latitude": 46.215997,
      "_longitude": 5.2122333
    },
    "description": "Point d'intérêt: Boulangerie Marie",
    "category": "experienceGustative",
    "categoryGroup": "Experience gustative",
    "categoryItem": "bakery",
    "city": "Ain",
    "departmentCode": "01",
    "imageUrls": [],
    "images": [],
    "websiteUrl": null,
    "website": null,
    "source": "openstreetmap",
    "osmId": 3050789591,
    "isPublic": true,
    "isValidated": true,
    "isFree": null,
    "pmrAccessible": false,
    "kidsFriendly": null,
    "createdAt": {
      "_seconds": 1771774806,
      "_nanoseconds": 0
    },
    "updatedAt": "2026-02-22T16:40:06.500034"
  },
  {
    "id": "osm_3050790176",
    "name": "Nöl",
    "lat": 46.2149468,
    "lng": 5.2156335,
    "location": {
      "_latitude": 46.2149468,
      "_longitude": 5.2156335
    },
    "description": "Point d'intérêt: Nöl",
    "category": "experienceGustative",
    "categoryGroup": "Experience gustative",
    "categoryItem": "bakery",
    "city": "Ain",
    "departmentCode": "01",
    "imageUrls": [],
    "images": [],
    "websiteUrl": null,
    "website": null,
    "source": "openstreetmap",
    "osmId": 3050790176,
    "isPublic": true,
    "isValidated": true,
    "isFree": null,
    "pmrAccessible": false,
    "kidsFriendly": null,
    "createdAt": {
      "_seconds": 1771774806,
      "_nanoseconds": 0
    },
    "updatedAt": "2026-02-22T16:40:06.500043"
  },
  {
    "id": "osm_3066917437",
    "name": "Le Jasmin",
    "lat": 46.2137247,
    "lng": 5.2197026,
    "location": {
      "_latitude": 46.2137247,
      "_longitude": 5.2197026
    },
    "description": "Point d'intérêt: Le Jasmin",
    "category": "experienceGustative",
    "categoryGroup": "Experience gustative",
    "categoryItem": "restaurant",
    "city": "Ain",
    "departmentCode": "01",
    "imageUrls": [],
    "images": [],
    "websiteUrl": null,
    "website": null,
    "source": "openstreetmap",
    "osmId": 3066917437,
    "isPublic": true,
    "isValidated": true,
    "isFree": null,
    "pmrAccessible": false,
    "kidsFriendly": null,
    "createdAt": {
      "_seconds": 1771774806,
      "_nanoseconds": 0
    },
    "updatedAt": "2026-02-22T16:40:06.500051"
  },
  {
    "id": "osm_3289716610",
    "name": "14 Bis",
    "lat": 46.2053687,
    "lng": 5.2888389,
    "location": {
      "_latitude": 46.2053687,
      "_longitude": 5.2888389
    },
    "description": "Point d'intérêt: 14 Bis",
    "category": "experienceGustative",
    "categoryGroup": "Experience gustative",
    "categoryItem": "restaurant",
    "city": "Ain",
    "departmentCode": "01",
    "imageUrls": [],
    "images": [],
    "websiteUrl": "https://website-14-bis-restaurant-jasseron.eatbu.com/?lang=fr",
    "website": "https://website-14-bis-restaurant-jasseron.eatbu.com/?lang=fr",
    "source": "openstreetmap",
    "osmId": 3289716610,
    "isPublic": true,
    "isValidated": true,
    "isFree": null,
    "pmrAccessible": false,
    "kidsFriendly": null,
    "createdAt": {
      "_seconds": 1771774806,
      "_nanoseconds": 0
    },
    "updatedAt": "2026-02-22T16:40:06.500059"
  },
  {
    "id": "osm_3391656951",
    "name": "La grenouillére",
    "lat": 46.2075319,
    "lng": 5.2256762,
    "location": {
      "_latitude": 46.2075319,
      "_longitude": 5.2256762
    },
    "description": "Point d'intérêt: La grenouillére",
    "category": "experienceGustative",
    "categoryGroup": "Experience gustative",
    "categoryItem": "bakery",
    "city": "Ain",
    "departmentCode": "01",
    "imageUrls": [],
    "images": [],
    "websiteUrl": null,
    "website": null,
    "source": "openstreetmap",
    "osmId": 3391656951,
    "isPublic": true,
    "isValidated": true,
    "isFree": null,
    "pmrAccessible": true,
    "kidsFriendly": null,
    "createdAt": {
      "_seconds": 1771774806,
      "_nanoseconds": 0
    },
    "updatedAt": "2026-02-22T16:40:06.500067"
  },
  {
    "id": "osm_3391697596",
    "name": "La Coq'Hôte",
    "lat": 46.2075841,
    "lng": 5.2254361,
    "location": {
      "_latitude": 46.2075841,
      "_longitude": 5.2254361
    },
    "description": "Point d'intérêt: La Coq'Hôte",
    "category": "experienceGustative",
    "categoryGroup": "Experience gustative",
    "categoryItem": "restaurant",
    "city": "Ain",
    "departmentCode": "01",
    "imageUrls": [],
    "images": [],
    "websiteUrl": "http://www.lacoqhote.fr/",
    "website": "http://www.lacoqhote.fr/",
    "source": "openstreetmap",
    "osmId": 3391697596,
    "isPublic": true,
    "isValidated": true,
    "isFree": null,
    "pmrAccessible": false,
    "kidsFriendly": null,
    "createdAt": {
      "_seconds": 1771774806,
      "_nanoseconds": 0
    },
    "updatedAt": "2026-02-22T16:40:06.500090"
  },
  {
    "id": "osm_3391707493",
    "name": "Goyet",
    "lat": 46.2128643,
    "lng": 5.2416128,
    "location": {
      "_latitude": 46.2128643,
      "_longitude": 5.2416128
    },
    "description": "Point d'intérêt: Goyet",
    "category": "experienceGustative",
    "categoryGroup": "Experience gustative",
    "categoryItem": "bakery",
    "city": "Ain",
    "departmentCode": "01",
    "imageUrls": [],
    "images": [],
    "websiteUrl": null,
    "website": null,
    "source": "openstreetmap",
    "osmId": 3391707493,
    "isPublic": true,
    "isValidated": true,
    "isFree": null,
    "pmrAccessible": false,
    "kidsFriendly": null,
    "createdAt": {
      "_seconds": 1771774806,
      "_nanoseconds": 0
    },
    "updatedAt": "2026-02-22T16:40:06.500099"
  },
  {
    "id": "osm_3404767693",
    "name": "Campanile",
    "lat": 46.2221279,
    "lng": 5.2057656,
    "location": {
      "_latitude": 46.2221279,
      "_longitude": 5.2057656
    },
    "description": "Point d'intérêt: Campanile",
    "category": "experienceGustative",
    "categoryGroup": "Experience gustative",
    "categoryItem": "restaurant",
    "city": "Ain",
    "departmentCode": "01",
    "imageUrls": [],
    "images": [],
    "websiteUrl": null,
    "website": null,
    "source": "openstreetmap",
    "osmId": 3404767693,
    "isPublic": true,
    "isValidated": true,
    "isFree": null,
    "pmrAccessible": false,
    "kidsFriendly": null,
    "createdAt": {
      "_seconds": 1771774806,
      "_nanoseconds": 0
    },
    "updatedAt": "2026-02-22T16:40:06.500108"
  },
  {
    "id": "osm_3837757896",
    "name": "L'Accent Latino",
    "lat": 46.2037537,
    "lng": 5.2253525,
    "location": {
      "_latitude": 46.2037537,
      "_longitude": 5.2253525
    },
    "description": "Point d'intérêt: L'Accent Latino",
    "category": "experienceGustative",
    "categoryGroup": "Experience gustative",
    "categoryItem": "restaurant",
    "city": "Ain",
    "departmentCode": "01",
    "imageUrls": [],
    "images": [],
    "websiteUrl": null,
    "website": null,
    "source": "openstreetmap",
    "osmId": 3837757896,
    "isPublic": true,
    "isValidated": true,
    "isFree": null,
    "pmrAccessible": false,
    "kidsFriendly": null,
    "createdAt": {
      "_seconds": 1771774806,
      "_nanoseconds": 0
    },
    "updatedAt": "2026-02-22T16:40:06.500117"
  },
  {
    "id": "osm_3837762836",
    "name": "La Table de Nadine",
    "lat": 46.206851,
    "lng": 5.2290334,
    "location": {
      "_latitude": 46.206851,
      "_longitude": 5.2290334
    },
    "description": "Point d'intérêt: La Table de Nadine",
    "category": "experienceGustative",
    "categoryGroup": "Experience gustative",
    "categoryItem": "restaurant",
    "city": "Ain",
    "departmentCode": "01",
    "imageUrls": [],
    "images": [],
    "websiteUrl": null,
    "website": null,
    "source": "openstreetmap",
    "osmId": 3837762836,
    "isPublic": true,
    "isValidated": true,
    "isFree": null,
    "pmrAccessible": false,
    "kidsFriendly": null,
    "createdAt": {
      "_seconds": 1771774806,
      "_nanoseconds": 0
    },
    "updatedAt": "2026-02-22T16:40:06.500126"
  },
  {
    "id": "osm_3837778672",
    "name": "L'AKge",
    "lat": 46.2050597,
    "lng": 5.2282428,
    "location": {
      "_latitude": 46.2050597,
      "_longitude": 5.2282428
    },
    "description": "Point d'intérêt: L'AKge",
    "category": "experienceGustative",
    "categoryGroup": "Experience gustative",
    "categoryItem": "restaurant",
    "city": "Ain",
    "departmentCode": "01",
    "imageUrls": [],
    "images": [],
    "websiteUrl": null,
    "website": null,
    "source": "openstreetmap",
    "osmId": 3837778672,
    "isPublic": true,
    "isValidated": true,
    "isFree": null,
    "pmrAccessible": false,
    "kidsFriendly": null,
    "createdAt": {
      "_seconds": 1771774806,
      "_nanoseconds": 0
    },
    "updatedAt": "2026-02-22T16:40:06.500144"
  },
  {
    "id": "osm_4419435990",
    "name": "Au Pot de Grès",
    "lat": 46.1713527,
    "lng": 5.2883546,
    "location": {
      "_latitude": 46.1713527,
      "_longitude": 5.2883546
    },
    "description": "Point d'intérêt: Au Pot de Grès",
    "category": "experienceGustative",
    "categoryGroup": "Experience gustative",
    "categoryItem": "restaurant",
    "city": "Ain",
    "departmentCode": "01",
    "imageUrls": [],
    "images": [],
    "websiteUrl": null,
    "website": null,
    "source": "openstreetmap",
    "osmId": 4419435990,
    "isPublic": true,
    "isValidated": true,
    "isFree": null,
    "pmrAccessible": false,
    "kidsFriendly": null,
    "createdAt": {
      "_seconds": 1771774806,
      "_nanoseconds": 0
    },
    "updatedAt": "2026-02-22T16:40:06.500152"
  },
  {
    "id": "osm_4570529428",
    "name": "Le Cozy Cook",
    "lat": 46.2014628,
    "lng": 5.2218658,
    "location": {
      "_latitude": 46.2014628,
      "_longitude": 5.2218658
    },
    "description": "Point d'intérêt: Le Cozy Cook",
    "category": "experienceGustative",
    "categoryGroup": "Experience gustative",
    "categoryItem": "restaurant",
    "city": "Ain",
    "departmentCode": "01",
    "imageUrls": [],
    "images": [],
    "websiteUrl": null,
    "website": null,
    "source": "openstreetmap",
    "osmId": 4570529428,
    "isPublic": true,
    "isValidated": true,
    "isFree": null,
    "pmrAccessible": false,
    "kidsFriendly": null,
    "createdAt": {
      "_seconds": 1771774806,
      "_nanoseconds": 0
    },
    "updatedAt": "2026-02-22T16:40:06.500161"
  },
  {
    "id": "osm_4731994397",
    "name": "L'Ardoise Café",
    "lat": 46.200513,
    "lng": 5.2171233,
    "location": {
      "_latitude": 46.200513,
      "_longitude": 5.2171233
    },
    "description": "Point d'intérêt: L'Ardoise Café",
    "category": "experienceGustative",
    "categoryGroup": "Experience gustative",
    "categoryItem": "restaurant",
    "city": "Ain",
    "departmentCode": "01",
    "imageUrls": [],
    "images": [],
    "websiteUrl": null,
    "website": null,
    "source": "openstreetmap",
    "osmId": 4731994397,
    "isPublic": true,
    "isValidated": true,
    "isFree": null,
    "pmrAccessible": false,
    "kidsFriendly": null,
    "createdAt": {
      "_seconds": 1771774806,
      "_nanoseconds": 0
    },
    "updatedAt": "2026-02-22T16:40:06.500170"
  },
  {
    "id": "osm_4815276524",
    "name": "Brasserie du Théâtre",
    "lat": 46.2064936,
    "lng": 5.2257699,
    "location": {
      "_latitude": 46.2064936,
      "_longitude": 5.2257699
    },
    "description": "Point d'intérêt: Brasserie du Théâtre",
    "category": "experienceGustative",
    "categoryGroup": "Experience gustative",
    "categoryItem": "restaurant",
    "city": "Ain",
    "departmentCode": "01",
    "imageUrls": [],
    "images": [],
    "websiteUrl": null,
    "website": null,
    "source": "openstreetmap",
    "osmId": 4815276524,
    "isPublic": true,
    "isValidated": true,
    "isFree": null,
    "pmrAccessible": true,
    "kidsFriendly": null,
    "createdAt": {
      "_seconds": 1771774806,
      "_nanoseconds": 0
    },
    "updatedAt": "2026-02-22T16:40:06.500177"
  },
  {
    "id": "osm_4815276525",
    "name": "Café de la Comédie",
    "lat": 46.206516,
    "lng": 5.2260122,
    "location": {
      "_latitude": 46.206516,
      "_longitude": 5.2260122
    },
    "description": "Point d'intérêt: Café de la Comédie",
    "category": "experienceGustative",
    "categoryGroup": "Experience gustative",
    "categoryItem": "cafe",
    "city": "Ain",
    "departmentCode": "01",
    "imageUrls": [],
    "images": [],
    "websiteUrl": null,
    "website": null,
    "source": "openstreetmap",
    "osmId": 4815276525,
    "isPublic": true,
    "isValidated": true,
    "isFree": null,
    "pmrAccessible": false,
    "kidsFriendly": null,
    "createdAt": {
      "_seconds": 1771774806,
      "_nanoseconds": 0
    },
    "updatedAt": "2026-02-22T16:40:06.500186"
  },
  {
    "id": "osm_4815276526",
    "name": "La Mie Câline",
    "lat": 46.2066584,
    "lng": 5.2263886,
    "location": {
      "_latitude": 46.2066584,
      "_longitude": 5.2263886
    },
    "description": "Point d'intérêt: La Mie Câline",
    "category": "experienceGustative",
    "categoryGroup": "Experience gustative",
    "categoryItem": "bakery",
    "city": "Ain",
    "departmentCode": "01",
    "imageUrls": [],
    "images": [],
    "websiteUrl": null,
    "website": null,
    "source": "openstreetmap",
    "osmId": 4815276526,
    "isPublic": true,
    "isValidated": true,
    "isFree": null,
    "pmrAccessible": false,
    "kidsFriendly": null,
    "createdAt": {
      "_seconds": 1771774806,
      "_nanoseconds": 0
    },
    "updatedAt": "2026-02-22T16:40:06.500194"
  },
  {
    "id": "osm_4815276527",
    "name": "Au Petit Des Lys",
    "lat": 46.2062284,
    "lng": 5.2260737,
    "location": {
      "_latitude": 46.2062284,
      "_longitude": 5.2260737
    },
    "description": "Point d'intérêt: Au Petit Des Lys",
    "category": "experienceGustative",
    "categoryGroup": "Experience gustative",
    "categoryItem": "restaurant",
    "city": "Ain",
    "departmentCode": "01",
    "imageUrls": [],
    "images": [],
    "websiteUrl": null,
    "website": null,
    "source": "openstreetmap",
    "osmId": 4815276527,
    "isPublic": true,
    "isValidated": true,
    "isFree": null,
    "pmrAccessible": false,
    "kidsFriendly": null,
    "createdAt": {
      "_seconds": 1771774806,
      "_nanoseconds": 0
    },
    "updatedAt": "2026-02-22T16:40:06.500211"
  },
  {
    "id": "osm_4815278678",
    "name": "Banette",
    "lat": 46.2007512,
    "lng": 5.2326587,
    "location": {
      "_latitude": 46.2007512,
      "_longitude": 5.2326587
    },
    "description": "Point d'intérêt: Banette",
    "category": "experienceGustative",
    "categoryGroup": "Experience gustative",
    "categoryItem": "bakery",
    "city": "Ain",
    "departmentCode": "01",
    "imageUrls": [],
    "images": [],
    "websiteUrl": null,
    "website": null,
    "source": "openstreetmap",
    "osmId": 4815278678,
    "isPublic": true,
    "isValidated": true,
    "isFree": null,
    "pmrAccessible": true,
    "kidsFriendly": null,
    "createdAt": {
      "_seconds": 1771774806,
      "_nanoseconds": 0
    },
    "updatedAt": "2026-02-22T16:40:06.500221"
  },
  {
    "id": "osm_4815278679",
    "name": "Restaurant De L’Abbaye",
    "lat": 46.1983814,
    "lng": 5.2346295,
    "location": {
      "_latitude": 46.1983814,
      "_longitude": 5.2346295
    },
    "description": "Point d'intérêt: Restaurant De L’Abbaye",
    "category": "experienceGustative",
    "categoryGroup": "Experience gustative",
    "categoryItem": "restaurant",
    "city": "Ain",
    "departmentCode": "01",
    "imageUrls": [],
    "images": [],
    "websiteUrl": null,
    "website": null,
    "source": "openstreetmap",
    "osmId": 4815278679,
    "isPublic": true,
    "isValidated": true,
    "isFree": null,
    "pmrAccessible": false,
    "kidsFriendly": null,
    "createdAt": {
      "_seconds": 1771774806,
      "_nanoseconds": 0
    },
    "updatedAt": "2026-02-22T16:40:06.500231"
  },
  {
    "id": "osm_4815278680",
    "name": "L'Authentic",
    "lat": 46.1980453,
    "lng": 5.2348689,
    "location": {
      "_latitude": 46.1980453,
      "_longitude": 5.2348689
    },
    "description": "Point d'intérêt: L'Authentic",
    "category": "experienceGustative",
    "categoryGroup": "Experience gustative",
    "categoryItem": "restaurant",
    "city": "Ain",
    "departmentCode": "01",
    "imageUrls": [],
    "images": [],
    "websiteUrl": null,
    "website": null,
    "source": "openstreetmap",
    "osmId": 4815278680,
    "isPublic": true,
    "isValidated": true,
    "isFree": null,
    "pmrAccessible": false,
    "kidsFriendly": null,
    "createdAt": {
      "_seconds": 1771774806,
      "_nanoseconds": 0
    },
    "updatedAt": "2026-02-22T16:40:06.500239"
  },
  {
    "id": "osm_4815278681",
    "name": "La Table d'Arthur",
    "lat": 46.2000663,
    "lng": 5.2332174,
    "location": {
      "_latitude": 46.2000663,
      "_longitude": 5.2332174
    },
    "description": "Point d'intérêt: La Table d'Arthur",
    "category": "experienceGustative",
    "categoryGroup": "Experience gustative",
    "categoryItem": "restaurant",
    "city": "Ain",
    "departmentCode": "01",
    "imageUrls": [],
    "images": [],
    "websiteUrl": null,
    "website": null,
    "source": "openstreetmap",
    "osmId": 4815278681,
    "isPublic": true,
    "isValidated": true,
    "isFree": null,
    "pmrAccessible": false,
    "kidsFriendly": null,
    "createdAt": {
      "_seconds": 1771774806,
      "_nanoseconds": 0
    },
    "updatedAt": "2026-02-22T16:40:06.500247"
  },
  {
    "id": "osm_4815278682",
    "name": "Ici comme chez mémé",
    "lat": 46.1990703,
    "lng": 5.2340119,
    "location": {
      "_latitude": 46.1990703,
      "_longitude": 5.2340119
    },
    "description": "Point d'intérêt: Ici comme chez mémé",
    "category": "experienceGustative",
    "categoryGroup": "Experience gustative",
    "categoryItem": "restaurant",
    "city": "Ain",
    "departmentCode": "01",
    "imageUrls": [],
    "images": [],
    "websiteUrl": "http://www.icicommechezmeme.com",
    "website": "http://www.icicommechezmeme.com",
    "source": "openstreetmap",
    "osmId": 4815278682,
    "isPublic": true,
    "isValidated": true,
    "isFree": null,
    "pmrAccessible": false,
    "kidsFriendly": null,
    "createdAt": {
      "_seconds": 1771774806,
      "_nanoseconds": 0
    },
    "updatedAt": "2026-02-22T16:40:06.500255"
  },
  {
    "id": "osm_4815278684",
    "name": "Rotisserie de la Mer",
    "lat": 46.1994374,
    "lng": 5.2336317,
    "location": {
      "_latitude": 46.1994374,
      "_longitude": 5.2336317
    },
    "description": "Point d'intérêt: Rotisserie de la Mer",
    "category": "experienceGustative",
    "categoryGroup": "Experience gustative",
    "categoryItem": "restaurant",
    "city": "Ain",
    "departmentCode": "01",
    "imageUrls": [],
    "images": [],
    "websiteUrl": null,
    "website": null,
    "source": "openstreetmap",
    "osmId": 4815278684,
    "isPublic": true,
    "isValidated": true,
    "isFree": null,
    "pmrAccessible": false,
    "kidsFriendly": null,
    "createdAt": {
      "_seconds": 1771774806,
      "_nanoseconds": 0
    },
    "updatedAt": "2026-02-22T16:40:06.500263"
  },
  {
    "id": "osm_4815280329",
    "name": "Au Chalet de Brou",
    "lat": 46.1976128,
    "lng": 5.235118,
    "location": {
      "_latitude": 46.1976128,
      "_longitude": 5.235118
    },
    "description": "Point d'intérêt: Au Chalet de Brou",
    "category": "experienceGustative",
    "categoryGroup": "Experience gustative",
    "categoryItem": "restaurant",
    "city": "Ain",
    "departmentCode": "01",
    "imageUrls": [],
    "images": [],
    "websiteUrl": null,
    "website": null,
    "source": "openstreetmap",
    "osmId": 4815280329,
    "isPublic": true,
    "isValidated": true,
    "isFree": null,
    "pmrAccessible": false,
    "kidsFriendly": null,
    "createdAt": {
      "_seconds": 1771774806,
      "_nanoseconds": 0
    },
    "updatedAt": "2026-02-22T16:40:06.500270"
  },
  {
    "id": "osm_4815280331",
    "name": "La Duchesse de Savoie",
    "lat": 46.1974134,
    "lng": 5.2353856,
    "location": {
      "_latitude": 46.1974134,
      "_longitude": 5.2353856
    },
    "description": "Point d'intérêt: La Duchesse de Savoie",
    "category": "experienceGustative",
    "categoryGroup": "Experience gustative",
    "categoryItem": "cafe",
    "city": "Ain",
    "departmentCode": "01",
    "imageUrls": [],
    "images": [],
    "websiteUrl": null,
    "website": null,
    "source": "openstreetmap",
    "osmId": 4815280331,
    "isPublic": true,
    "isValidated": true,
    "isFree": null,
    "pmrAccessible": false,
    "kidsFriendly": null,
    "createdAt": {
      "_seconds": 1771774806,
      "_nanoseconds": 0
    },
    "updatedAt": "2026-02-22T16:40:06.500278"
  },
  {
    "id": "osm_4815280332",
    "name": "L'Auberge Bressane",
    "lat": 46.1977501,
    "lng": 5.2351399,
    "location": {
      "_latitude": 46.1977501,
      "_longitude": 5.2351399
    },
    "description": "Point d'intérêt: L'Auberge Bressane",
    "category": "experienceGustative",
    "categoryGroup": "Experience gustative",
    "categoryItem": "restaurant",
    "city": "Ain",
    "departmentCode": "01",
    "imageUrls": [],
    "images": [],
    "websiteUrl": "https://www.aubergebressane.fr/",
    "website": "https://www.aubergebressane.fr/",
    "source": "openstreetmap",
    "osmId": 4815280332,
    "isPublic": true,
    "isValidated": true,
    "isFree": null,
    "pmrAccessible": false,
    "kidsFriendly": null,
    "createdAt": {
      "_seconds": 1771774806,
      "_nanoseconds": 0
    },
    "updatedAt": "2026-02-22T16:40:06.500286"
  },
  {
    "id": "osm_4866210893",
    "name": "POI sans nom",
    "lat": 46.2097142,
    "lng": 5.2330034,
    "location": {
      "_latitude": 46.2097142,
      "_longitude": 5.2330034
    },
    "description": "Point d'intérêt: POI sans nom",
    "category": "experienceGustative",
    "categoryGroup": "Experience gustative",
    "categoryItem": "bakery",
    "city": "Ain",
    "departmentCode": "01",
    "imageUrls": [],
    "images": [],
    "websiteUrl": null,
    "website": null,
    "source": "openstreetmap",
    "osmId": 4866210893,
    "isPublic": true,
    "isValidated": true,
    "isFree": null,
    "pmrAccessible": false,
    "kidsFriendly": null,
    "createdAt": {
      "_seconds": 1771774806,
      "_nanoseconds": 0
    },
    "updatedAt": "2026-02-22T16:40:06.500294"
  },
  {
    "id": "osm_4866210894",
    "name": "Marie Blachère",
    "lat": 46.201873,
    "lng": 5.2497676,
    "location": {
      "_latitude": 46.201873,
      "_longitude": 5.2497676
    },
    "description": "Point d'intérêt: Marie Blachère",
    "category": "experienceGustative",
    "categoryGroup": "Experience gustative",
    "categoryItem": "bakery",
    "city": "Ain",
    "departmentCode": "01",
    "imageUrls": [],
    "images": [],
    "websiteUrl": null,
    "website": null,
    "source": "openstreetmap",
    "osmId": 4866210894,
    "isPublic": true,
    "isValidated": true,
    "isFree": null,
    "pmrAccessible": false,
    "kidsFriendly": null,
    "createdAt": {
      "_seconds": 1771774806,
      "_nanoseconds": 0
    },
    "updatedAt": "2026-02-22T16:40:06.500329"
  },
  {
    "id": "osm_4866210895",
    "name": "POI sans nom",
    "lat": 46.2238562,
    "lng": 5.2330822,
    "location": {
      "_latitude": 46.2238562,
      "_longitude": 5.2330822
    },
    "description": "Point d'intérêt: POI sans nom",
    "category": "experienceGustative",
    "categoryGroup": "Experience gustative",
    "categoryItem": "bakery",
    "city": "Ain",
    "departmentCode": "01",
    "imageUrls": [],
    "images": [],
    "websiteUrl": null,
    "website": null,
    "source": "openstreetmap",
    "osmId": 4866210895,
    "isPublic": true,
    "isValidated": true,
    "isFree": null,
    "pmrAccessible": false,
    "kidsFriendly": null,
    "createdAt": {
      "_seconds": 1771774806,
      "_nanoseconds": 0
    },
    "updatedAt": "2026-02-22T16:40:06.500346"
  },
  {
    "id": "osm_4888153727",
    "name": "La Fleur de Sel",
    "lat": 46.2033462,
    "lng": 5.2268395,
    "location": {
      "_latitude": 46.2033462,
      "_longitude": 5.2268395
    },
    "description": "Point d'intérêt: La Fleur de Sel",
    "category": "experienceGustative",
    "categoryGroup": "Experience gustative",
    "categoryItem": "restaurant",
    "city": "Ain",
    "departmentCode": "01",
    "imageUrls": [],
    "images": [],
    "websiteUrl": null,
    "website": null,
    "source": "openstreetmap",
    "osmId": 4888153727,
    "isPublic": true,
    "isValidated": true,
    "isFree": null,
    "pmrAccessible": false,
    "kidsFriendly": null,
    "createdAt": {
      "_seconds": 1771774806,
      "_nanoseconds": 0
    },
    "updatedAt": "2026-02-22T16:40:06.500354"
  },
  {
    "id": "osm_4888153729",
    "name": "Bistrot d'Edgar",
    "lat": 46.2035634,
    "lng": 5.2267939,
    "location": {
      "_latitude": 46.2035634,
      "_longitude": 5.2267939
    },
    "description": "Point d'intérêt: Bistrot d'Edgar",
    "category": "experienceGustative",
    "categoryGroup": "Experience gustative",
    "categoryItem": "restaurant",
    "city": "Ain",
    "departmentCode": "01",
    "imageUrls": [],
    "images": [],
    "websiteUrl": null,
    "website": null,
    "source": "openstreetmap",
    "osmId": 4888153729,
    "isPublic": true,
    "isValidated": true,
    "isFree": null,
    "pmrAccessible": false,
    "kidsFriendly": null,
    "createdAt": {
      "_seconds": 1771774806,
      "_nanoseconds": 0
    },
    "updatedAt": "2026-02-22T16:40:06.500362"
  },
  {
    "id": "osm_4888153730",
    "name": "L'Apéro du Bistrot",
    "lat": 46.2036326,
    "lng": 5.2268395,
    "location": {
      "_latitude": 46.2036326,
      "_longitude": 5.2268395
    },
    "description": "Point d'intérêt: L'Apéro du Bistrot",
    "category": "experienceGustative",
    "categoryGroup": "Experience gustative",
    "categoryItem": "restaurant",
    "city": "Ain",
    "departmentCode": "01",
    "imageUrls": [],
    "images": [],
    "websiteUrl": null,
    "website": null,
    "source": "openstreetmap",
    "osmId": 4888153730,
    "isPublic": true,
    "isValidated": true,
    "isFree": null,
    "pmrAccessible": false,
    "kidsFriendly": null,
    "createdAt": {
      "_seconds": 1771774806,
      "_nanoseconds": 0
    },
    "updatedAt": "2026-02-22T16:40:06.500369"
  },
  {
    "id": "osm_4888153732",
    "name": "Astella",
    "lat": 46.2038196,
    "lng": 5.2270185,
    "location": {
      "_latitude": 46.2038196,
      "_longitude": 5.2270185
    },
    "description": "Point d'intérêt: Astella",
    "category": "experienceGustative",
    "categoryGroup": "Experience gustative",
    "categoryItem": "restaurant",
    "city": "Ain",
    "departmentCode": "01",
    "imageUrls": [],
    "images": [],
    "websiteUrl": null,
    "website": null,
    "source": "openstreetmap",
    "osmId": 4888153732,
    "isPublic": true,
    "isValidated": true,
    "isFree": null,
    "pmrAccessible": false,
    "kidsFriendly": null,
    "createdAt": {
      "_seconds": 1771774806,
      "_nanoseconds": 0
    },
    "updatedAt": "2026-02-22T16:40:06.500377"
  },
  {
    "id": "osm_4888153745",
    "name": "Caramelo",
    "lat": 46.2046754,
    "lng": 5.2270628,
    "location": {
      "_latitude": 46.2046754,
      "_longitude": 5.2270628
    },
    "description": "Point d'intérêt: Caramelo",
    "category": "experienceGustative",
    "categoryGroup": "Experience gustative",
    "categoryItem": "restaurant",
    "city": "Ain",
    "departmentCode": "01",
    "imageUrls": [],
    "images": [],
    "websiteUrl": null,
    "website": null,
    "source": "openstreetmap",
    "osmId": 4888153745,
    "isPublic": true,
    "isValidated": true,
    "isFree": null,
    "pmrAccessible": false,
    "kidsFriendly": null,
    "createdAt": {
      "_seconds": 1771774806,
      "_nanoseconds": 0
    },
    "updatedAt": "2026-02-22T16:40:06.500385"
  },
  {
    "id": "osm_4888153748",
    "name": "L'Olympe",
    "lat": 46.204964,
    "lng": 5.228137,
    "location": {
      "_latitude": 46.204964,
      "_longitude": 5.228137
    },
    "description": "Point d'intérêt: L'Olympe",
    "category": "experienceGustative",
    "categoryGroup": "Experience gustative",
    "categoryItem": "restaurant",
    "city": "Ain",
    "departmentCode": "01",
    "imageUrls": [],
    "images": [],
    "websiteUrl": null,
    "website": null,
    "source": "openstreetmap",
    "osmId": 4888153748,
    "isPublic": true,
    "isValidated": true,
    "isFree": null,
    "pmrAccessible": false,
    "kidsFriendly": null,
    "createdAt": {
      "_seconds": 1771774806,
      "_nanoseconds": 0
    },
    "updatedAt": "2026-02-22T16:40:06.500392"
  },
  {
    "id": "osm_4888153750",
    "name": "Les Bons Enfants",
    "lat": 46.2043728,
    "lng": 5.227901,
    "location": {
      "_latitude": 46.2043728,
      "_longitude": 5.227901
    },
    "description": "Point d'intérêt: Les Bons Enfants",
    "category": "experienceGustative",
    "categoryGroup": "Experience gustative",
    "categoryItem": "restaurant",
    "city": "Ain",
    "departmentCode": "01",
    "imageUrls": [],
    "images": [],
    "websiteUrl": null,
    "website": null,
    "source": "openstreetmap",
    "osmId": 4888153750,
    "isPublic": true,
    "isValidated": true,
    "isFree": null,
    "pmrAccessible": false,
    "kidsFriendly": null,
    "createdAt": {
      "_seconds": 1771774806,
      "_nanoseconds": 0
    },
    "updatedAt": "2026-02-22T16:40:06.500400"
  },
  {
    "id": "osm_4964285992",
    "name": "W Burger",
    "lat": 46.203834,
    "lng": 5.225892,
    "location": {
      "_latitude": 46.203834,
      "_longitude": 5.225892
    },
    "description": "Point d'intérêt: W Burger",
    "category": "experienceGustative",
    "categoryGroup": "Experience gustative",
    "categoryItem": "restaurant",
    "city": "Ain",
    "departmentCode": "01",
    "imageUrls": [],
    "images": [],
    "websiteUrl": null,
    "website": null,
    "source": "openstreetmap",
    "osmId": 4964285992,
    "isPublic": true,
    "isValidated": true,
    "isFree": null,
    "pmrAccessible": false,
    "kidsFriendly": null,
    "createdAt": {
      "_seconds": 1771774806,
      "_nanoseconds": 0
    },
    "updatedAt": "2026-02-22T16:40:06.500407"
  },
  {
    "id": "osm_4964285997",
    "name": "Restaurant Heng-Li",
    "lat": 46.202354,
    "lng": 5.2288552,
    "location": {
      "_latitude": 46.202354,
      "_longitude": 5.2288552
    },
    "description": "Point d'intérêt: Restaurant Heng-Li",
    "category": "experienceGustative",
    "categoryGroup": "Experience gustative",
    "categoryItem": "restaurant",
    "city": "Ain",
    "departmentCode": "01",
    "imageUrls": [],
    "images": [],
    "websiteUrl": null,
    "website": null,
    "source": "openstreetmap",
    "osmId": 4964285997,
    "isPublic": true,
    "isValidated": true,
    "isFree": null,
    "pmrAccessible": false,
    "kidsFriendly": null,
    "createdAt": {
      "_seconds": 1771774806,
      "_nanoseconds": 0
    },
    "updatedAt": "2026-02-22T16:40:06.500415"
  },
  {
    "id": "osm_4964285998",
    "name": "Bollyfood",
    "lat": 46.202761,
    "lng": 5.2281712,
    "location": {
      "_latitude": 46.202761,
      "_longitude": 5.2281712
    },
    "description": "Point d'intérêt: Bollyfood",
    "category": "experienceGustative",
    "categoryGroup": "Experience gustative",
    "categoryItem": "restaurant",
    "city": "Ain",
    "departmentCode": "01",
    "imageUrls": [],
    "images": [],
    "websiteUrl": null,
    "website": null,
    "source": "openstreetmap",
    "osmId": 4964285998,
    "isPublic": true,
    "isValidated": true,
    "isFree": null,
    "pmrAccessible": false,
    "kidsFriendly": null,
    "createdAt": {
      "_seconds": 1771774806,
      "_nanoseconds": 0
    },
    "updatedAt": "2026-02-22T16:40:06.500427"
  },
  {
    "id": "osm_4964286000",
    "name": "Le Bressan",
    "lat": 46.202671,
    "lng": 5.2280351,
    "location": {
      "_latitude": 46.202671,
      "_longitude": 5.2280351
    },
    "description": "Point d'intérêt: Le Bressan",
    "category": "experienceGustative",
    "categoryGroup": "Experience gustative",
    "categoryItem": "restaurant",
    "city": "Ain",
    "departmentCode": "01",
    "imageUrls": [],
    "images": [],
    "websiteUrl": null,
    "website": null,
    "source": "openstreetmap",
    "osmId": 4964286000,
    "isPublic": true,
    "isValidated": true,
    "isFree": null,
    "pmrAccessible": false,
    "kidsFriendly": null,
    "createdAt": {
      "_seconds": 1771774806,
      "_nanoseconds": 0
    },
    "updatedAt": "2026-02-22T16:40:06.500435"
  },
  {
    "id": "osm_4964286001",
    "name": "Chez Mouss",
    "lat": 46.2027146,
    "lng": 5.2279694,
    "location": {
      "_latitude": 46.2027146,
      "_longitude": 5.2279694
    },
    "description": "Point d'intérêt: Chez Mouss",
    "category": "experienceGustative",
    "categoryGroup": "Experience gustative",
    "categoryItem": "restaurant",
    "city": "Ain",
    "departmentCode": "01",
    "imageUrls": [],
    "images": [],
    "websiteUrl": null,
    "website": null,
    "source": "openstreetmap",
    "osmId": 4964286001,
    "isPublic": true,
    "isValidated": true,
    "isFree": null,
    "pmrAccessible": false,
    "kidsFriendly": null,
    "createdAt": {
      "_seconds": 1771774806,
      "_nanoseconds": 0
    },
    "updatedAt": "2026-02-22T16:40:06.500452"
  },
  {
    "id": "osm_4964286009",
    "name": "La Main Verte",
    "lat": 46.2032,
    "lng": 5.2271533,
    "location": {
      "_latitude": 46.2032,
      "_longitude": 5.2271533
    },
    "description": "Point d'intérêt: La Main Verte",
    "category": "experienceGustative",
    "categoryGroup": "Experience gustative",
    "categoryItem": "restaurant",
    "city": "Ain",
    "departmentCode": "01",
    "imageUrls": [],
    "images": [],
    "websiteUrl": null,
    "website": null,
    "source": "openstreetmap",
    "osmId": 4964286009,
    "isPublic": true,
    "isValidated": true,
    "isFree": null,
    "pmrAccessible": false,
    "kidsFriendly": null,
    "createdAt": {
      "_seconds": 1771774806,
      "_nanoseconds": 0
    },
    "updatedAt": "2026-02-22T16:40:06.500461"
  },
  {
    "id": "osm_4964286010",
    "name": "L'Envie",
    "lat": 46.2031754,
    "lng": 5.2271989,
    "location": {
      "_latitude": 46.2031754,
      "_longitude": 5.2271989
    },
    "description": "Point d'intérêt: L'Envie",
    "category": "experienceGustative",
    "categoryGroup": "Experience gustative",
    "categoryItem": "restaurant",
    "city": "Ain",
    "departmentCode": "01",
    "imageUrls": [],
    "images": [],
    "websiteUrl": null,
    "website": null,
    "source": "openstreetmap",
    "osmId": 4964286010,
    "isPublic": true,
    "isValidated": true,
    "isFree": null,
    "pmrAccessible": false,
    "kidsFriendly": null,
    "createdAt": {
      "_seconds": 1771774806,
      "_nanoseconds": 0
    },
    "updatedAt": "2026-02-22T16:40:06.500468"
  },
  {
    "id": "osm_4964286012",
    "name": "Pasta & Pizza",
    "lat": 46.2032738,
    "lng": 5.2269991,
    "location": {
      "_latitude": 46.2032738,
      "_longitude": 5.2269991
    },
    "description": "Point d'intérêt: Pasta & Pizza",
    "category": "experienceGustative",
    "categoryGroup": "Experience gustative",
    "categoryItem": "restaurant",
    "city": "Ain",
    "departmentCode": "01",
    "imageUrls": [],
    "images": [],
    "websiteUrl": null,
    "website": null,
    "source": "openstreetmap",
    "osmId": 4964286012,
    "isPublic": true,
    "isValidated": true,
    "isFree": null,
    "pmrAccessible": false,
    "kidsFriendly": null,
    "createdAt": {
      "_seconds": 1771774806,
      "_nanoseconds": 0
    },
    "updatedAt": "2026-02-22T16:40:06.500476"
  },
  {
    "id": "osm_5034985921",
    "name": "POI sans nom",
    "lat": 46.2002342,
    "lng": 5.1909905,
    "location": {
      "_latitude": 46.2002342,
      "_longitude": 5.1909905
    },
    "description": "Point d'intérêt: POI sans nom",
    "category": "experienceGustative",
    "categoryGroup": "Experience gustative",
    "categoryItem": "bakery",
    "city": "Ain",
    "departmentCode": "01",
    "imageUrls": [],
    "images": [],
    "websiteUrl": null,
    "website": null,
    "source": "openstreetmap",
    "osmId": 5034985921,
    "isPublic": true,
    "isValidated": true,
    "isFree": null,
    "pmrAccessible": false,
    "kidsFriendly": null,
    "createdAt": {
      "_seconds": 1771774806,
      "_nanoseconds": 0
    },
    "updatedAt": "2026-02-22T16:40:06.500484"
  },
  {
    "id": "osm_5034995722",
    "name": "POI sans nom",
    "lat": 46.202311,
    "lng": 5.2132328,
    "location": {
      "_latitude": 46.202311,
      "_longitude": 5.2132328
    },
    "description": "Point d'intérêt: POI sans nom",
    "category": "experienceGustative",
    "categoryGroup": "Experience gustative",
    "categoryItem": "bakery",
    "city": "Ain",
    "departmentCode": "01",
    "imageUrls": [],
    "images": [],
    "websiteUrl": null,
    "website": null,
    "source": "openstreetmap",
    "osmId": 5034995722,
    "isPublic": true,
    "isValidated": true,
    "isFree": null,
    "pmrAccessible": false,
    "kidsFriendly": null,
    "createdAt": {
      "_seconds": 1771774806,
      "_nanoseconds": 0
    },
    "updatedAt": "2026-02-22T16:40:06.500492"
  },
  {
    "id": "osm_5117970716",
    "name": "POI sans nom",
    "lat": 46.2156934,
    "lng": 5.2418464,
    "location": {
      "_latitude": 46.2156934,
      "_longitude": 5.2418464
    },
    "description": "Point d'intérêt: POI sans nom",
    "category": "experienceGustative",
    "categoryGroup": "Experience gustative",
    "categoryItem": "restaurant",
    "city": "Ain",
    "departmentCode": "01",
    "imageUrls": [],
    "images": [],
    "websiteUrl": null,
    "website": null,
    "source": "openstreetmap",
    "osmId": 5117970716,
    "isPublic": true,
    "isValidated": true,
    "isFree": null,
    "pmrAccessible": false,
    "kidsFriendly": null,
    "createdAt": {
      "_seconds": 1771774806,
      "_nanoseconds": 0
    },
    "updatedAt": "2026-02-22T16:40:06.500500"
  },
  {
    "id": "osm_5532587120",
    "name": "Restaurant Au Comtoir des Vlandes",
    "lat": 46.1789497,
    "lng": 5.2545495,
    "location": {
      "_latitude": 46.1789497,
      "_longitude": 5.2545495
    },
    "description": "Point d'intérêt: Restaurant Au Comtoir des Vlandes",
    "category": "experienceGustative",
    "categoryGroup": "Experience gustative",
    "categoryItem": "restaurant",
    "city": "Ain",
    "departmentCode": "01",
    "imageUrls": [],
    "images": [],
    "websiteUrl": null,
    "website": null,
    "source": "openstreetmap",
    "osmId": 5532587120,
    "isPublic": true,
    "isValidated": true,
    "isFree": null,
    "pmrAccessible": false,
    "kidsFriendly": null,
    "createdAt": {
      "_seconds": 1771774806,
      "_nanoseconds": 0
    },
    "updatedAt": "2026-02-22T16:40:06.500507"
  },
  {
    "id": "osm_5532658704",
    "name": "Cafe Pasta Pizza & Cie",
    "lat": 46.2001563,
    "lng": 5.240186,
    "location": {
      "_latitude": 46.2001563,
      "_longitude": 5.240186
    },
    "description": "Point d'intérêt: Cafe Pasta Pizza & Cie",
    "category": "experienceGustative",
    "categoryGroup": "Experience gustative",
    "categoryItem": "restaurant",
    "city": "Ain",
    "departmentCode": "01",
    "imageUrls": [],
    "images": [],
    "websiteUrl": null,
    "website": null,
    "source": "openstreetmap",
    "osmId": 5532658704,
    "isPublic": true,
    "isValidated": true,
    "isFree": null,
    "pmrAccessible": false,
    "kidsFriendly": null,
    "createdAt": {
      "_seconds": 1771774806,
      "_nanoseconds": 0
    },
    "updatedAt": "2026-02-22T16:40:06.500515"
  },
  {
    "id": "osm_6189416969",
    "name": "Au Bon Choix",
    "lat": 46.2037044,
    "lng": 5.2457392,
    "location": {
      "_latitude": 46.2037044,
      "_longitude": 5.2457392
    },
    "description": "Point d'intérêt: Au Bon Choix",
    "category": "experienceGustative",
    "categoryGroup": "Experience gustative",
    "categoryItem": "restaurant",
    "city": "Ain",
    "departmentCode": "01",
    "imageUrls": [],
    "images": [],
    "websiteUrl": null,
    "website": null,
    "source": "openstreetmap",
    "osmId": 6189416969,
    "isPublic": true,
    "isValidated": true,
    "isFree": null,
    "pmrAccessible": false,
    "kidsFriendly": null,
    "createdAt": {
      "_seconds": 1771774806,
      "_nanoseconds": 0
    },
    "updatedAt": "2026-02-22T16:40:06.500523"
  },
  {
    "id": "osm_6253690586",
    "name": "Starbucks",
    "lat": 46.2047081,
    "lng": 5.2944171,
    "location": {
      "_latitude": 46.2047081,
      "_longitude": 5.2944171
    },
    "description": "Point d'intérêt: Starbucks",
    "category": "experienceGustative",
    "categoryGroup": "Experience gustative",
    "categoryItem": "cafe",
    "city": "Ain",
    "departmentCode": "01",
    "imageUrls": [],
    "images": [],
    "websiteUrl": null,
    "website": null,
    "source": "openstreetmap",
    "osmId": 6253690586,
    "isPublic": true,
    "isValidated": true,
    "isFree": null,
    "pmrAccessible": false,
    "kidsFriendly": null,
    "createdAt": {
      "_seconds": 1771774806,
      "_nanoseconds": 0
    },
    "updatedAt": "2026-02-22T16:40:06.500530"
  },
  {
    "id": "osm_6474742496",
    "name": "Guillot",
    "lat": 46.2048458,
    "lng": 5.2276454,
    "location": {
      "_latitude": 46.2048458,
      "_longitude": 5.2276454
    },
    "description": "Point d'intérêt: Guillot",
    "category": "experienceGustative",
    "categoryGroup": "Experience gustative",
    "categoryItem": "bakery",
    "city": "Ain",
    "departmentCode": "01",
    "imageUrls": [],
    "images": [],
    "websiteUrl": null,
    "website": null,
    "source": "openstreetmap",
    "osmId": 6474742496,
    "isPublic": true,
    "isValidated": true,
    "isFree": null,
    "pmrAccessible": false,
    "kidsFriendly": null,
    "createdAt": {
      "_seconds": 1771774806,
      "_nanoseconds": 0
    },
    "updatedAt": "2026-02-22T16:40:06.500539"
  },
  {
    "id": "osm_6476693878",
    "name": "Paul",
    "lat": 46.2061819,
    "lng": 5.2257261,
    "location": {
      "_latitude": 46.2061819,
      "_longitude": 5.2257261
    },
    "description": "Point d'intérêt: Paul",
    "category": "experienceGustative",
    "categoryGroup": "Experience gustative",
    "categoryItem": "bakery",
    "city": "Ain",
    "departmentCode": "01",
    "imageUrls": [],
    "images": [],
    "websiteUrl": null,
    "website": null,
    "source": "openstreetmap",
    "osmId": 6476693878,
    "isPublic": true,
    "isValidated": true,
    "isFree": null,
    "pmrAccessible": false,
    "kidsFriendly": null,
    "createdAt": {
      "_seconds": 1771774806,
      "_nanoseconds": 0
    },
    "updatedAt": "2026-02-22T16:40:06.500556"
  },
  {
    "id": "osm_6476716769",
    "name": "Aficionado",
    "lat": 46.205685,
    "lng": 5.225058,
    "location": {
      "_latitude": 46.205685,
      "_longitude": 5.225058
    },
    "description": "Point d'intérêt: Aficionado",
    "category": "experienceGustative",
    "categoryGroup": "Experience gustative",
    "categoryItem": "restaurant",
    "city": "Ain",
    "departmentCode": "01",
    "imageUrls": [],
    "images": [],
    "websiteUrl": "https://aficionadocoffee.fr/",
    "website": "https://aficionadocoffee.fr/",
    "source": "openstreetmap",
    "osmId": 6476716769,
    "isPublic": true,
    "isValidated": true,
    "isFree": null,
    "pmrAccessible": false,
    "kidsFriendly": null,
    "createdAt": {
      "_seconds": 1771774806,
      "_nanoseconds": 0
    },
    "updatedAt": "2026-02-22T16:40:06.500564"
  },
  {
    "id": "osm_6479140143",
    "name": "La Grenouillère",
    "lat": 46.205693,
    "lng": 5.2293928,
    "location": {
      "_latitude": 46.205693,
      "_longitude": 5.2293928
    },
    "description": "Point d'intérêt: La Grenouillère",
    "category": "experienceGustative",
    "categoryGroup": "Experience gustative",
    "categoryItem": "bakery",
    "city": "Ain",
    "departmentCode": "01",
    "imageUrls": [],
    "images": [],
    "websiteUrl": null,
    "website": null,
    "source": "openstreetmap",
    "osmId": 6479140143,
    "isPublic": true,
    "isValidated": true,
    "isFree": null,
    "pmrAccessible": false,
    "kidsFriendly": null,
    "createdAt": {
      "_seconds": 1771774806,
      "_nanoseconds": 0
    },
    "updatedAt": "2026-02-22T16:40:06.500572"
  },
  {
    "id": "osm_6479172022",
    "name": "Bistrot Bressan",
    "lat": 46.2057928,
    "lng": 5.2301459,
    "location": {
      "_latitude": 46.2057928,
      "_longitude": 5.2301459
    },
    "description": "Point d'intérêt: Bistrot Bressan",
    "category": "experienceGustative",
    "categoryGroup": "Experience gustative",
    "categoryItem": "cafe",
    "city": "Ain",
    "departmentCode": "01",
    "imageUrls": [],
    "images": [],
    "websiteUrl": null,
    "website": null,
    "source": "openstreetmap",
    "osmId": 6479172022,
    "isPublic": true,
    "isValidated": true,
    "isFree": null,
    "pmrAccessible": false,
    "kidsFriendly": null,
    "createdAt": {
      "_seconds": 1771774806,
      "_nanoseconds": 0
    },
    "updatedAt": "2026-02-22T16:40:06.500580"
  },
  {
    "id": "osm_6496383297",
    "name": "Pizz'a part",
    "lat": 46.2032552,
    "lng": 5.2259937,
    "location": {
      "_latitude": 46.2032552,
      "_longitude": 5.2259937
    },
    "description": "Point d'intérêt: Pizz'a part",
    "category": "experienceGustative",
    "categoryGroup": "Experience gustative",
    "categoryItem": "restaurant",
    "city": "Ain",
    "departmentCode": "01",
    "imageUrls": [],
    "images": [],
    "websiteUrl": null,
    "website": null,
    "source": "openstreetmap",
    "osmId": 6496383297,
    "isPublic": true,
    "isValidated": true,
    "isFree": null,
    "pmrAccessible": false,
    "kidsFriendly": null,
    "createdAt": {
      "_seconds": 1771774806,
      "_nanoseconds": 0
    },
    "updatedAt": "2026-02-22T16:40:06.500588"
  },
  {
    "id": "osm_6496383298",
    "name": "La Bigoudène",
    "lat": 46.203238,
    "lng": 5.2259185,
    "location": {
      "_latitude": 46.203238,
      "_longitude": 5.2259185
    },
    "description": "Point d'intérêt: La Bigoudène",
    "category": "experienceGustative",
    "categoryGroup": "Experience gustative",
    "categoryItem": "restaurant",
    "city": "Ain",
    "departmentCode": "01",
    "imageUrls": [],
    "images": [],
    "websiteUrl": null,
    "website": null,
    "source": "openstreetmap",
    "osmId": 6496383298,
    "isPublic": true,
    "isValidated": true,
    "isFree": null,
    "pmrAccessible": false,
    "kidsFriendly": null,
    "createdAt": {
      "_seconds": 1771774806,
      "_nanoseconds": 0
    },
    "updatedAt": "2026-02-22T16:40:06.500595"
  },
  {
    "id": "osm_6604023548",
    "name": "Brasserie Notre-Dame",
    "lat": 46.20514,
    "lng": 5.2257946,
    "location": {
      "_latitude": 46.20514,
      "_longitude": 5.2257946
    },
    "description": "Point d'intérêt: Brasserie Notre-Dame",
    "category": "experienceGustative",
    "categoryGroup": "Experience gustative",
    "categoryItem": "restaurant",
    "city": "Ain",
    "departmentCode": "01",
    "imageUrls": [],
    "images": [],
    "websiteUrl": null,
    "website": null,
    "source": "openstreetmap",
    "osmId": 6604023548,
    "isPublic": true,
    "isValidated": true,
    "isFree": null,
    "pmrAccessible": true,
    "kidsFriendly": null,
    "createdAt": {
      "_seconds": 1771774806,
      "_nanoseconds": 0
    },
    "updatedAt": "2026-02-22T16:40:06.500603"
  },
  {
    "id": "osm_7087203657",
    "name": "Le Bistrot de la Neuve",
    "lat": 46.2159699,
    "lng": 5.2136859,
    "location": {
      "_latitude": 46.2159699,
      "_longitude": 5.2136859
    },
    "description": "Point d'intérêt: Le Bistrot de la Neuve",
    "category": "experienceGustative",
    "categoryGroup": "Experience gustative",
    "categoryItem": "restaurant",
    "city": "Ain",
    "departmentCode": "01",
    "imageUrls": [],
    "images": [],
    "websiteUrl": null,
    "website": null,
    "source": "openstreetmap",
    "osmId": 7087203657,
    "isPublic": true,
    "isValidated": true,
    "isFree": null,
    "pmrAccessible": false,
    "kidsFriendly": null,
    "createdAt": {
      "_seconds": 1771774806,
      "_nanoseconds": 0
    },
    "updatedAt": "2026-02-22T16:40:06.500610"
  },
  {
    "id": "osm_7087203659",
    "name": "La Calèche",
    "lat": 46.2157342,
    "lng": 5.2139032,
    "location": {
      "_latitude": 46.2157342,
      "_longitude": 5.2139032
    },
    "description": "Point d'intérêt: La Calèche",
    "category": "experienceGustative",
    "categoryGroup": "Experience gustative",
    "categoryItem": "restaurant",
    "city": "Ain",
    "departmentCode": "01",
    "imageUrls": [],
    "images": [],
    "websiteUrl": null,
    "website": null,
    "source": "openstreetmap",
    "osmId": 7087203659,
    "isPublic": true,
    "isValidated": true,
    "isFree": null,
    "pmrAccessible": false,
    "kidsFriendly": null,
    "createdAt": {
      "_seconds": 1771774806,
      "_nanoseconds": 0
    },
    "updatedAt": "2026-02-22T16:40:06.500618"
  },
  {
    "id": "osm_7087215900",
    "name": "Memphis",
    "lat": 46.2165369,
    "lng": 5.2131149,
    "location": {
      "_latitude": 46.2165369,
      "_longitude": 5.2131149
    },
    "description": "Point d'intérêt: Memphis",
    "category": "experienceGustative",
    "categoryGroup": "Experience gustative",
    "categoryItem": "restaurant",
    "city": "Ain",
    "departmentCode": "01",
    "imageUrls": [],
    "images": [],
    "websiteUrl": "https://restaurants.memphis-restaurant.com/Bourg-en-Bresse-Viriat",
    "website": "https://restaurants.memphis-restaurant.com/Bourg-en-Bresse-Viriat",
    "source": "openstreetmap",
    "osmId": 7087215900,
    "isPublic": true,
    "isValidated": true,
    "isFree": null,
    "pmrAccessible": false,
    "kidsFriendly": null,
    "createdAt": {
      "_seconds": 1771774806,
      "_nanoseconds": 0
    },
    "updatedAt": "2026-02-22T16:40:06.500629"
  },
  {
    "id": "osm_7087215903",
    "name": "La Cantina",
    "lat": 46.2168145,
    "lng": 5.2128412,
    "location": {
      "_latitude": 46.2168145,
      "_longitude": 5.2128412
    },
    "description": "Point d'intérêt: La Cantina",
    "category": "experienceGustative",
    "categoryGroup": "Experience gustative",
    "categoryItem": "restaurant",
    "city": "Ain",
    "departmentCode": "01",
    "imageUrls": [],
    "images": [],
    "websiteUrl": null,
    "website": null,
    "source": "openstreetmap",
    "osmId": 7087215903,
    "isPublic": true,
    "isValidated": true,
    "isFree": null,
    "pmrAccessible": false,
    "kidsFriendly": null,
    "createdAt": {
      "_seconds": 1771774806,
      "_nanoseconds": 0
    },
    "updatedAt": "2026-02-22T16:40:06.500638"
  },
  {
    "id": "osm_7087215904",
    "name": "Ristorante Del Arte",
    "lat": 46.2174085,
    "lng": 5.2124138,
    "location": {
      "_latitude": 46.2174085,
      "_longitude": 5.2124138
    },
    "description": "Point d'intérêt: Ristorante Del Arte",
    "category": "experienceGustative",
    "categoryGroup": "Experience gustative",
    "categoryItem": "restaurant",
    "city": "Ain",
    "departmentCode": "01",
    "imageUrls": [],
    "images": [],
    "websiteUrl": "https://www.delarte.fr/restaurants/1408-bourg-en-bresse",
    "website": "https://www.delarte.fr/restaurants/1408-bourg-en-bresse",
    "source": "openstreetmap",
    "osmId": 7087215904,
    "isPublic": true,
    "isValidated": true,
    "isFree": null,
    "pmrAccessible": false,
    "kidsFriendly": null,
    "createdAt": {
      "_seconds": 1771774806,
      "_nanoseconds": 0
    },
    "updatedAt": "2026-02-22T16:40:06.500646"
  },
  {
    "id": "osm_8345805216",
    "name": "Festival des pains",
    "lat": 46.1900348,
    "lng": 5.2261771,
    "location": {
      "_latitude": 46.1900348,
      "_longitude": 5.2261771
    },
    "description": "Point d'intérêt: Festival des pains",
    "category": "experienceGustative",
    "categoryGroup": "Experience gustative",
    "categoryItem": "bakery",
    "city": "Ain",
    "departmentCode": "01",
    "imageUrls": [],
    "images": [],
    "websiteUrl": null,
    "website": null,
    "source": "openstreetmap",
    "osmId": 8345805216,
    "isPublic": true,
    "isValidated": true,
    "isFree": null,
    "pmrAccessible": false,
    "kidsFriendly": null,
    "createdAt": {
      "_seconds": 1771774806,
      "_nanoseconds": 0
    },
    "updatedAt": "2026-02-22T16:40:06.500659"
  },
  {
    "id": "osm_8345827718",
    "name": "Le Montesquieu",
    "lat": 46.18957,
    "lng": 5.2267678,
    "location": {
      "_latitude": 46.18957,
      "_longitude": 5.2267678
    },
    "description": "Point d'intérêt: Le Montesquieu",
    "category": "experienceGustative",
    "categoryGroup": "Experience gustative",
    "categoryItem": "restaurant",
    "city": "Ain",
    "departmentCode": "01",
    "imageUrls": [],
    "images": [],
    "websiteUrl": null,
    "website": null,
    "source": "openstreetmap",
    "osmId": 8345827718,
    "isPublic": true,
    "isValidated": true,
    "isFree": null,
    "pmrAccessible": false,
    "kidsFriendly": null,
    "createdAt": {
      "_seconds": 1771774806,
      "_nanoseconds": 0
    },
    "updatedAt": "2026-02-22T16:40:06.500667"
  },
  {
    "id": "osm_8345827794",
    "name": "L'Amarena",
    "lat": 46.1881487,
    "lng": 5.2091296,
    "location": {
      "_latitude": 46.1881487,
      "_longitude": 5.2091296
    },
    "description": "Point d'intérêt: L'Amarena",
    "category": "experienceGustative",
    "categoryGroup": "Experience gustative",
    "categoryItem": "restaurant",
    "city": "Ain",
    "departmentCode": "01",
    "imageUrls": [],
    "images": [],
    "websiteUrl": null,
    "website": null,
    "source": "openstreetmap",
    "osmId": 8345827794,
    "isPublic": true,
    "isValidated": true,
    "isFree": null,
    "pmrAccessible": false,
    "kidsFriendly": null,
    "createdAt": {
      "_seconds": 1771774806,
      "_nanoseconds": 0
    },
    "updatedAt": "2026-02-22T16:40:06.500674"
  },
  {
    "id": "osm_9126739705",
    "name": "Kamily 01",
    "lat": 46.2058563,
    "lng": 5.2310342,
    "location": {
      "_latitude": 46.2058563,
      "_longitude": 5.2310342
    },
    "description": "Point d'intérêt: Kamily 01",
    "category": "experienceGustative",
    "categoryGroup": "Experience gustative",
    "categoryItem": "restaurant",
    "city": "Ain",
    "departmentCode": "01",
    "imageUrls": [],
    "images": [],
    "websiteUrl": null,
    "website": null,
    "source": "openstreetmap",
    "osmId": 9126739705,
    "isPublic": true,
    "isValidated": true,
    "isFree": null,
    "pmrAccessible": false,
    "kidsFriendly": null,
    "createdAt": {
      "_seconds": 1771774806,
      "_nanoseconds": 0
    },
    "updatedAt": "2026-02-22T16:40:06.500685"
  },
  {
    "id": "osm_9281305335",
    "name": "Café de la Préfecture",
    "lat": 46.20322,
    "lng": 5.2221773,
    "location": {
      "_latitude": 46.20322,
      "_longitude": 5.2221773
    },
    "description": "Point d'intérêt: Café de la Préfecture",
    "category": "experienceGustative",
    "categoryGroup": "Experience gustative",
    "categoryItem": "cafe",
    "city": "Ain",
    "departmentCode": "01",
    "imageUrls": [],
    "images": [],
    "websiteUrl": null,
    "website": null,
    "source": "openstreetmap",
    "osmId": 9281305335,
    "isPublic": true,
    "isValidated": true,
    "isFree": null,
    "pmrAccessible": false,
    "kidsFriendly": null,
    "createdAt": {
      "_seconds": 1771774806,
      "_nanoseconds": 0
    },
    "updatedAt": "2026-02-22T16:40:06.500694"
  },
  {
    "id": "osm_9281305339",
    "name": "Boulangerie de la Préf'",
    "lat": 46.2031931,
    "lng": 5.2218769,
    "location": {
      "_latitude": 46.2031931,
      "_longitude": 5.2218769
    },
    "description": "Point d'intérêt: Boulangerie de la Préf'",
    "category": "experienceGustative",
    "categoryGroup": "Experience gustative",
    "categoryItem": "bakery",
    "city": "Ain",
    "departmentCode": "01",
    "imageUrls": [],
    "images": [],
    "websiteUrl": null,
    "website": null,
    "source": "openstreetmap",
    "osmId": 9281305339,
    "isPublic": true,
    "isValidated": true,
    "isFree": null,
    "pmrAccessible": false,
    "kidsFriendly": null,
    "createdAt": {
      "_seconds": 1771774806,
      "_nanoseconds": 0
    },
    "updatedAt": "2026-02-22T16:40:06.500702"
  },
  {
    "id": "osm_9527973213",
    "name": "Restaurant Mumtaz Mahal",
    "lat": 46.2044999,
    "lng": 5.2295671,
    "location": {
      "_latitude": 46.2044999,
      "_longitude": 5.2295671
    },
    "description": "Point d'intérêt: Restaurant Mumtaz Mahal",
    "category": "experienceGustative",
    "categoryGroup": "Experience gustative",
    "categoryItem": "restaurant",
    "city": "Ain",
    "departmentCode": "01",
    "imageUrls": [],
    "images": [],
    "websiteUrl": null,
    "website": null,
    "source": "openstreetmap",
    "osmId": 9527973213,
    "isPublic": true,
    "isValidated": true,
    "isFree": null,
    "pmrAccessible": false,
    "kidsFriendly": null,
    "createdAt": {
      "_seconds": 1771774806,
      "_nanoseconds": 0
    },
    "updatedAt": "2026-02-22T16:40:06.500709"
  },
  {
    "id": "osm_9527973214",
    "name": "BC2F",
    "lat": 46.2045448,
    "lng": 5.2295321,
    "location": {
      "_latitude": 46.2045448,
      "_longitude": 5.2295321
    },
    "description": "Point d'intérêt: BC2F",
    "category": "experienceGustative",
    "categoryGroup": "Experience gustative",
    "categoryItem": "restaurant",
    "city": "Ain",
    "departmentCode": "01",
    "imageUrls": [],
    "images": [],
    "websiteUrl": null,
    "website": null,
    "source": "openstreetmap",
    "osmId": 9527973214,
    "isPublic": true,
    "isValidated": true,
    "isFree": null,
    "pmrAccessible": false,
    "kidsFriendly": null,
    "createdAt": {
      "_seconds": 1771774806,
      "_nanoseconds": 0
    },
    "updatedAt": "2026-02-22T16:40:06.500716"
  },
  {
    "id": "osm_9527973215",
    "name": "Alain Prost",
    "lat": 46.2048509,
    "lng": 5.2293118,
    "location": {
      "_latitude": 46.2048509,
      "_longitude": 5.2293118
    },
    "description": "Point d'intérêt: Alain Prost",
    "category": "experienceGustative",
    "categoryGroup": "Experience gustative",
    "categoryItem": "bakery",
    "city": "Ain",
    "departmentCode": "01",
    "imageUrls": [],
    "images": [],
    "websiteUrl": null,
    "website": null,
    "source": "openstreetmap",
    "osmId": 9527973215,
    "isPublic": true,
    "isValidated": true,
    "isFree": null,
    "pmrAccessible": false,
    "kidsFriendly": null,
    "createdAt": {
      "_seconds": 1771774806,
      "_nanoseconds": 0
    },
    "updatedAt": "2026-02-22T16:40:06.500724"
  },
  {
    "id": "osm_9527973216",
    "name": "Scratch Restaurant",
    "lat": 46.2049963,
    "lng": 5.2289515,
    "location": {
      "_latitude": 46.2049963,
      "_longitude": 5.2289515
    },
    "description": "Point d'intérêt: Scratch Restaurant",
    "category": "experienceGustative",
    "categoryGroup": "Experience gustative",
    "categoryItem": "restaurant",
    "city": "Ain",
    "departmentCode": "01",
    "imageUrls": [],
    "images": [],
    "websiteUrl": null,
    "website": null,
    "source": "openstreetmap",
    "osmId": 9527973216,
    "isPublic": true,
    "isValidated": true,
    "isFree": null,
    "pmrAccessible": false,
    "kidsFriendly": null,
    "createdAt": {
      "_seconds": 1771774806,
      "_nanoseconds": 0
    },
    "updatedAt": "2026-02-22T16:40:06.500731"
  },
  {
    "id": "osm_9652731519",
    "name": "Ambassade d'Asie",
    "lat": 46.2001385,
    "lng": 5.2160944,
    "location": {
      "_latitude": 46.2001385,
      "_longitude": 5.2160944
    },
    "description": "Point d'intérêt: Ambassade d'Asie",
    "category": "experienceGustative",
    "categoryGroup": "Experience gustative",
    "categoryItem": "restaurant",
    "city": "Ain",
    "departmentCode": "01",
    "imageUrls": [],
    "images": [],
    "websiteUrl": null,
    "website": null,
    "source": "openstreetmap",
    "osmId": 9652731519,
    "isPublic": true,
    "isValidated": true,
    "isFree": null,
    "pmrAccessible": false,
    "kidsFriendly": null,
    "createdAt": {
      "_seconds": 1771774806,
      "_nanoseconds": 0
    },
    "updatedAt": "2026-02-22T16:40:06.500738"
  },
  {
    "id": "osm_9652731531",
    "name": "La Grillade",
    "lat": 46.2006197,
    "lng": 5.217818,
    "location": {
      "_latitude": 46.2006197,
      "_longitude": 5.217818
    },
    "description": "Point d'intérêt: La Grillade",
    "category": "experienceGustative",
    "categoryGroup": "Experience gustative",
    "categoryItem": "restaurant",
    "city": "Ain",
    "departmentCode": "01",
    "imageUrls": [],
    "images": [],
    "websiteUrl": null,
    "website": null,
    "source": "openstreetmap",
    "osmId": 9652731531,
    "isPublic": true,
    "isValidated": true,
    "isFree": null,
    "pmrAccessible": false,
    "kidsFriendly": null,
    "createdAt": {
      "_seconds": 1771774806,
      "_nanoseconds": 0
    },
    "updatedAt": "2026-02-22T16:40:06.500746"
  },
  {
    "id": "osm_9652731544",
    "name": "La Casa Mancini",
    "lat": 46.2005611,
    "lng": 5.217475,
    "location": {
      "_latitude": 46.2005611,
      "_longitude": 5.217475
    },
    "description": "Point d'intérêt: La Casa Mancini",
    "category": "experienceGustative",
    "categoryGroup": "Experience gustative",
    "categoryItem": "restaurant",
    "city": "Ain",
    "departmentCode": "01",
    "imageUrls": [],
    "images": [],
    "websiteUrl": null,
    "website": null,
    "source": "openstreetmap",
    "osmId": 9652731544,
    "isPublic": true,
    "isValidated": true,
    "isFree": null,
    "pmrAccessible": false,
    "kidsFriendly": null,
    "createdAt": {
      "_seconds": 1771774806,
      "_nanoseconds": 0
    },
    "updatedAt": "2026-02-22T16:40:06.500759"
  },
  {
    "id": "osm_9652731546",
    "name": "Chez Valette",
    "lat": 46.2006091,
    "lng": 5.2176478,
    "location": {
      "_latitude": 46.2006091,
      "_longitude": 5.2176478
    },
    "description": "Point d'intérêt: Chez Valette",
    "category": "experienceGustative",
    "categoryGroup": "Experience gustative",
    "categoryItem": "bakery",
    "city": "Ain",
    "departmentCode": "01",
    "imageUrls": [],
    "images": [],
    "websiteUrl": null,
    "website": null,
    "source": "openstreetmap",
    "osmId": 9652731546,
    "isPublic": true,
    "isValidated": true,
    "isFree": null,
    "pmrAccessible": true,
    "kidsFriendly": null,
    "createdAt": {
      "_seconds": 1771774806,
      "_nanoseconds": 0
    },
    "updatedAt": "2026-02-22T16:40:06.500767"
  },
  {
    "id": "osm_9652731547",
    "name": "Ô Comptoir",
    "lat": 46.2000867,
    "lng": 5.2156615,
    "location": {
      "_latitude": 46.2000867,
      "_longitude": 5.2156615
    },
    "description": "Point d'intérêt: Ô Comptoir",
    "category": "experienceGustative",
    "categoryGroup": "Experience gustative",
    "categoryItem": "restaurant",
    "city": "Ain",
    "departmentCode": "01",
    "imageUrls": [],
    "images": [],
    "websiteUrl": null,
    "website": null,
    "source": "openstreetmap",
    "osmId": 9652731547,
    "isPublic": true,
    "isValidated": true,
    "isFree": null,
    "pmrAccessible": false,
    "kidsFriendly": null,
    "createdAt": {
      "_seconds": 1771774806,
      "_nanoseconds": 0
    },
    "updatedAt": "2026-02-22T16:40:06.500775"
  },
  {
    "id": "osm_9687053232",
    "name": "L'Xtrem",
    "lat": 46.2195293,
    "lng": 5.2487069,
    "location": {
      "_latitude": 46.2195293,
      "_longitude": 5.2487069
    },
    "description": "Point d'intérêt: L'Xtrem",
    "category": "experienceGustative",
    "categoryGroup": "Experience gustative",
    "categoryItem": "restaurant",
    "city": "Ain",
    "departmentCode": "01",
    "imageUrls": [],
    "images": [],
    "websiteUrl": null,
    "website": null,
    "source": "openstreetmap",
    "osmId": 9687053232,
    "isPublic": true,
    "isValidated": true,
    "isFree": null,
    "pmrAccessible": false,
    "kidsFriendly": null,
    "createdAt": {
      "_seconds": 1771774806,
      "_nanoseconds": 0
    },
    "updatedAt": "2026-02-22T16:40:06.500782"
  },
  {
    "id": "osm_9812240117",
    "name": "Grain d'pain",
    "lat": 46.1908766,
    "lng": 5.2416614,
    "location": {
      "_latitude": 46.1908766,
      "_longitude": 5.2416614
    },
    "description": "Point d'intérêt: Grain d'pain",
    "category": "experienceGustative",
    "categoryGroup": "Experience gustative",
    "categoryItem": "bakery",
    "city": "Ain",
    "departmentCode": "01",
    "imageUrls": [],
    "images": [],
    "websiteUrl": "https://www.graindpain.com/",
    "website": "https://www.graindpain.com/",
    "source": "openstreetmap",
    "osmId": 9812240117,
    "isPublic": true,
    "isValidated": true,
    "isFree": null,
    "pmrAccessible": false,
    "kidsFriendly": null,
    "createdAt": {
      "_seconds": 1771774806,
      "_nanoseconds": 0
    },
    "updatedAt": "2026-02-22T16:40:06.500790"
  },
  {
    "id": "osm_9893405595",
    "name": "Le Burger du Boucher",
    "lat": 46.2036229,
    "lng": 5.2263265,
    "location": {
      "_latitude": 46.2036229,
      "_longitude": 5.2263265
    },
    "description": "Point d'intérêt: Le Burger du Boucher",
    "category": "experienceGustative",
    "categoryGroup": "Experience gustative",
    "categoryItem": "restaurant",
    "city": "Ain",
    "departmentCode": "01",
    "imageUrls": [],
    "images": [],
    "websiteUrl": null,
    "website": null,
    "source": "openstreetmap",
    "osmId": 9893405595,
    "isPublic": true,
    "isValidated": true,
    "isFree": null,
    "pmrAccessible": false,
    "kidsFriendly": null,
    "createdAt": {
      "_seconds": 1771774806,
      "_nanoseconds": 0
    },
    "updatedAt": "2026-02-22T16:40:06.500798"
  },
  {
    "id": "osm_9893415394",
    "name": "Inter Sushi",
    "lat": 46.2040677,
    "lng": 5.2266097,
    "location": {
      "_latitude": 46.2040677,
      "_longitude": 5.2266097
    },
    "description": "Point d'intérêt: Inter Sushi",
    "category": "experienceGustative",
    "categoryGroup": "Experience gustative",
    "categoryItem": "restaurant",
    "city": "Ain",
    "departmentCode": "01",
    "imageUrls": [],
    "images": [],
    "websiteUrl": "https://www.intersushi.fr",
    "website": "https://www.intersushi.fr",
    "source": "openstreetmap",
    "osmId": 9893415394,
    "isPublic": true,
    "isValidated": true,
    "isFree": null,
    "pmrAccessible": false,
    "kidsFriendly": null,
    "createdAt": {
      "_seconds": 1771774806,
      "_nanoseconds": 0
    },
    "updatedAt": "2026-02-22T16:40:06.500805"
  },
  {
    "id": "osm_9893432349",
    "name": "La Trattoria",
    "lat": 46.2036107,
    "lng": 5.2234655,
    "location": {
      "_latitude": 46.2036107,
      "_longitude": 5.2234655
    },
    "description": "Point d'intérêt: La Trattoria",
    "category": "experienceGustative",
    "categoryGroup": "Experience gustative",
    "categoryItem": "restaurant",
    "city": "Ain",
    "departmentCode": "01",
    "imageUrls": [],
    "images": [],
    "websiteUrl": null,
    "website": null,
    "source": "openstreetmap",
    "osmId": 9893432349,
    "isPublic": true,
    "isValidated": true,
    "isFree": null,
    "pmrAccessible": false,
    "kidsFriendly": null,
    "createdAt": {
      "_seconds": 1771774806,
      "_nanoseconds": 0
    },
    "updatedAt": "2026-02-22T16:40:06.500813"
  },
  {
    "id": "osm_9893449056",
    "name": "Le Myndos",
    "lat": 46.2028931,
    "lng": 5.2279594,
    "location": {
      "_latitude": 46.2028931,
      "_longitude": 5.2279594
    },
    "description": "Point d'intérêt: Le Myndos",
    "category": "experienceGustative",
    "categoryGroup": "Experience gustative",
    "categoryItem": "restaurant",
    "city": "Ain",
    "departmentCode": "01",
    "imageUrls": [],
    "images": [],
    "websiteUrl": null,
    "website": null,
    "source": "openstreetmap",
    "osmId": 9893449056,
    "isPublic": true,
    "isValidated": true,
    "isFree": null,
    "pmrAccessible": false,
    "kidsFriendly": null,
    "createdAt": {
      "_seconds": 1771774806,
      "_nanoseconds": 0
    },
    "updatedAt": "2026-02-22T16:40:06.500824"
  },
  {
    "id": "osm_9893451491",
    "name": "Mets & Vins",
    "lat": 46.2032749,
    "lng": 5.2272495,
    "location": {
      "_latitude": 46.2032749,
      "_longitude": 5.2272495
    },
    "description": "Point d'intérêt: Mets & Vins",
    "category": "experienceGustative",
    "categoryGroup": "Experience gustative",
    "categoryItem": "restaurant",
    "city": "Ain",
    "departmentCode": "01",
    "imageUrls": [],
    "images": [],
    "websiteUrl": null,
    "website": null,
    "source": "openstreetmap",
    "osmId": 9893451491,
    "isPublic": true,
    "isValidated": true,
    "isFree": null,
    "pmrAccessible": false,
    "kidsFriendly": null,
    "createdAt": {
      "_seconds": 1771774806,
      "_nanoseconds": 0
    },
    "updatedAt": "2026-02-22T16:40:06.500832"
  },
  {
    "id": "osm_9893460233",
    "name": "Au Soleil",
    "lat": 46.2036415,
    "lng": 5.2231037,
    "location": {
      "_latitude": 46.2036415,
      "_longitude": 5.2231037
    },
    "description": "Point d'intérêt: Au Soleil",
    "category": "experienceGustative",
    "categoryGroup": "Experience gustative",
    "categoryItem": "cafe",
    "city": "Ain",
    "departmentCode": "01",
    "imageUrls": [],
    "images": [],
    "websiteUrl": null,
    "website": null,
    "source": "openstreetmap",
    "osmId": 9893460233,
    "isPublic": true,
    "isValidated": true,
    "isFree": null,
    "pmrAccessible": false,
    "kidsFriendly": null,
    "createdAt": {
      "_seconds": 1771774806,
      "_nanoseconds": 0
    },
    "updatedAt": "2026-02-22T16:40:06.500840"
  },
  {
    "id": "osm_9893462246",
    "name": "L'Auguste",
    "lat": 46.2045137,
    "lng": 5.2255628,
    "location": {
      "_latitude": 46.2045137,
      "_longitude": 5.2255628
    },
    "description": "Point d'intérêt: L'Auguste",
    "category": "experienceGustative",
    "categoryGroup": "Experience gustative",
    "categoryItem": "restaurant",
    "city": "Ain",
    "departmentCode": "01",
    "imageUrls": [],
    "images": [],
    "websiteUrl": null,
    "website": null,
    "source": "openstreetmap",
    "osmId": 9893462246,
    "isPublic": true,
    "isValidated": true,
    "isFree": null,
    "pmrAccessible": false,
    "kidsFriendly": null,
    "createdAt": {
      "_seconds": 1771774806,
      "_nanoseconds": 0
    },
    "updatedAt": "2026-02-22T16:40:06.500848"
  },
  {
    "id": "osm_9895996465",
    "name": "Papa Gusto",
    "lat": 46.2036095,
    "lng": 5.2236143,
    "location": {
      "_latitude": 46.2036095,
      "_longitude": 5.2236143
    },
    "description": "Point d'intérêt: Papa Gusto",
    "category": "experienceGustative",
    "categoryGroup": "Experience gustative",
    "categoryItem": "restaurant",
    "city": "Ain",
    "departmentCode": "01",
    "imageUrls": [],
    "images": [],
    "websiteUrl": null,
    "website": null,
    "source": "openstreetmap",
    "osmId": 9895996465,
    "isPublic": true,
    "isValidated": true,
    "isFree": null,
    "pmrAccessible": false,
    "kidsFriendly": null,
    "createdAt": {
      "_seconds": 1771774806,
      "_nanoseconds": 0
    },
    "updatedAt": "2026-02-22T16:40:06.500860"
  },
  {
    "id": "osm_9901185300",
    "name": "Le Zing",
    "lat": 46.2061846,
    "lng": 5.224352,
    "location": {
      "_latitude": 46.2061846,
      "_longitude": 5.224352
    },
    "description": "Point d'intérêt: Le Zing",
    "category": "experienceGustative",
    "categoryGroup": "Experience gustative",
    "categoryItem": "restaurant",
    "city": "Ain",
    "departmentCode": "01",
    "imageUrls": [],
    "images": [],
    "websiteUrl": "https://le-zing-bourg.eatbu.com/",
    "website": "https://le-zing-bourg.eatbu.com/",
    "source": "openstreetmap",
    "osmId": 9901185300,
    "isPublic": true,
    "isValidated": true,
    "isFree": null,
    "pmrAccessible": false,
    "kidsFriendly": null,
    "createdAt": {
      "_seconds": 1771774806,
      "_nanoseconds": 0
    },
    "updatedAt": "2026-02-22T16:40:06.500868"
  },
  {
    "id": "osm_9901185301",
    "name": "L'Entracte",
    "lat": 46.2062665,
    "lng": 5.2243377,
    "location": {
      "_latitude": 46.2062665,
      "_longitude": 5.2243377
    },
    "description": "Point d'intérêt: L'Entracte",
    "category": "experienceGustative",
    "categoryGroup": "Experience gustative",
    "categoryItem": "cafe",
    "city": "Ain",
    "departmentCode": "01",
    "imageUrls": [],
    "images": [],
    "websiteUrl": null,
    "website": null,
    "source": "openstreetmap",
    "osmId": 9901185301,
    "isPublic": true,
    "isValidated": true,
    "isFree": null,
    "pmrAccessible": false,
    "kidsFriendly": null,
    "createdAt": {
      "_seconds": 1771774806,
      "_nanoseconds": 0
    },
    "updatedAt": "2026-02-22T16:40:06.500875"
  },
  {
    "id": "osm_9977346553",
    "name": "1 2 3 Pizza",
    "lat": 46.2024985,
    "lng": 5.2149465,
    "location": {
      "_latitude": 46.2024985,
      "_longitude": 5.2149465
    },
    "description": "Point d'intérêt: 1 2 3 Pizza",
    "category": "experienceGustative",
    "categoryGroup": "Experience gustative",
    "categoryItem": "restaurant",
    "city": "Ain",
    "departmentCode": "01",
    "imageUrls": [],
    "images": [],
    "websiteUrl": null,
    "website": null,
    "source": "openstreetmap",
    "osmId": 9977346553,
    "isPublic": true,
    "isValidated": true,
    "isFree": null,
    "pmrAccessible": false,
    "kidsFriendly": null,
    "createdAt": {
      "_seconds": 1771774806,
      "_nanoseconds": 0
    },
    "updatedAt": "2026-02-22T16:40:06.500883"
  },
  {
    "id": "osm_10160886010",
    "name": "Place Bernard",
    "lat": 46.2064201,
    "lng": 5.2285376,
    "location": {
      "_latitude": 46.2064201,
      "_longitude": 5.2285376
    },
    "description": "Point d'intérêt: Place Bernard",
    "category": "experienceGustative",
    "categoryGroup": "Experience gustative",
    "categoryItem": "restaurant",
    "city": "Ain",
    "departmentCode": "01",
    "imageUrls": [],
    "images": [],
    "websiteUrl": "https://placebernard.com",
    "website": "https://placebernard.com",
    "source": "openstreetmap",
    "osmId": 10160886010,
    "isPublic": true,
    "isValidated": true,
    "isFree": null,
    "pmrAccessible": false,
    "kidsFriendly": null,
    "createdAt": {
      "_seconds": 1771774806,
      "_nanoseconds": 0
    },
    "updatedAt": "2026-02-22T16:40:06.500964"
  },
  {
    "id": "osm_10244105434",
    "name": "Marie Blachère",
    "lat": 46.2236969,
    "lng": 5.2021726,
    "location": {
      "_latitude": 46.2236969,
      "_longitude": 5.2021726
    },
    "description": "Point d'intérêt: Marie Blachère",
    "category": "experienceGustative",
    "categoryGroup": "Experience gustative",
    "categoryItem": "bakery",
    "city": "Ain",
    "departmentCode": "01",
    "imageUrls": [],
    "images": [],
    "websiteUrl": null,
    "website": null,
    "source": "openstreetmap",
    "osmId": 10244105434,
    "isPublic": true,
    "isValidated": true,
    "isFree": null,
    "pmrAccessible": false,
    "kidsFriendly": null,
    "createdAt": {
      "_seconds": 1771774806,
      "_nanoseconds": 0
    },
    "updatedAt": "2026-02-22T16:40:06.500972"
  },
  {
    "id": "osm_10875080356",
    "name": "L'Atelier des pains",
    "lat": 46.1986014,
    "lng": 5.2176632,
    "location": {
      "_latitude": 46.1986014,
      "_longitude": 5.2176632
    },
    "description": "Point d'intérêt: L'Atelier des pains",
    "category": "experienceGustative",
    "categoryGroup": "Experience gustative",
    "categoryItem": "bakery",
    "city": "Ain",
    "departmentCode": "01",
    "imageUrls": [],
    "images": [],
    "websiteUrl": null,
    "website": null,
    "source": "openstreetmap",
    "osmId": 10875080356,
    "isPublic": true,
    "isValidated": true,
    "isFree": null,
    "pmrAccessible": false,
    "kidsFriendly": null,
    "createdAt": {
      "_seconds": 1771774806,
      "_nanoseconds": 0
    },
    "updatedAt": "2026-02-22T16:40:06.500980"
  },
  {
    "id": "osm_10941406206",
    "name": "Paul",
    "lat": 46.2034965,
    "lng": 5.2229212,
    "location": {
      "_latitude": 46.2034965,
      "_longitude": 5.2229212
    },
    "description": "Point d'intérêt: Paul",
    "category": "experienceGustative",
    "categoryGroup": "Experience gustative",
    "categoryItem": "bakery",
    "city": "Ain",
    "departmentCode": "01",
    "imageUrls": [],
    "images": [],
    "websiteUrl": null,
    "website": null,
    "source": "openstreetmap",
    "osmId": 10941406206,
    "isPublic": true,
    "isValidated": true,
    "isFree": null,
    "pmrAccessible": false,
    "kidsFriendly": null,
    "createdAt": {
      "_seconds": 1771774806,
      "_nanoseconds": 0
    },
    "updatedAt": "2026-02-22T16:40:06.500988"
  },
  {
    "id": "osm_11171145819",
    "name": "La Tavernetta",
    "lat": 46.2031567,
    "lng": 5.2262523,
    "location": {
      "_latitude": 46.2031567,
      "_longitude": 5.2262523
    },
    "description": "Point d'intérêt: La Tavernetta",
    "category": "experienceGustative",
    "categoryGroup": "Experience gustative",
    "categoryItem": "restaurant",
    "city": "Ain",
    "departmentCode": "01",
    "imageUrls": [],
    "images": [],
    "websiteUrl": null,
    "website": null,
    "source": "openstreetmap",
    "osmId": 11171145819,
    "isPublic": true,
    "isValidated": true,
    "isFree": null,
    "pmrAccessible": false,
    "kidsFriendly": null,
    "createdAt": {
      "_seconds": 1771774806,
      "_nanoseconds": 0
    },
    "updatedAt": "2026-02-22T16:40:06.501001"
  },
  {
    "id": "osm_11230604346",
    "name": "Marie Blachère",
    "lat": 46.1961854,
    "lng": 5.2283417,
    "location": {
      "_latitude": 46.1961854,
      "_longitude": 5.2283417
    },
    "description": "Point d'intérêt: Marie Blachère",
    "category": "experienceGustative",
    "categoryGroup": "Experience gustative",
    "categoryItem": "bakery",
    "city": "Ain",
    "departmentCode": "01",
    "imageUrls": [],
    "images": [],
    "websiteUrl": null,
    "website": null,
    "source": "openstreetmap",
    "osmId": 11230604346,
    "isPublic": true,
    "isValidated": true,
    "isFree": null,
    "pmrAccessible": true,
    "kidsFriendly": null,
    "createdAt": {
      "_seconds": 1771774806,
      "_nanoseconds": 0
    },
    "updatedAt": "2026-02-22T16:40:06.501009"
  },
  {
    "id": "osm_11442922796",
    "name": "Crêperie Bourg-en-Brest",
    "lat": 46.2065331,
    "lng": 5.2263091,
    "location": {
      "_latitude": 46.2065331,
      "_longitude": 5.2263091
    },
    "description": "Point d'intérêt: Crêperie Bourg-en-Brest",
    "category": "experienceGustative",
    "categoryGroup": "Experience gustative",
    "categoryItem": "restaurant",
    "city": "Ain",
    "departmentCode": "01",
    "imageUrls": [],
    "images": [],
    "websiteUrl": null,
    "website": null,
    "source": "openstreetmap",
    "osmId": 11442922796,
    "isPublic": true,
    "isValidated": true,
    "isFree": null,
    "pmrAccessible": false,
    "kidsFriendly": null,
    "createdAt": {
      "_seconds": 1771774806,
      "_nanoseconds": 0
    },
    "updatedAt": "2026-02-22T16:40:06.501017"
  },
  {
    "id": "osm_11442934270",
    "name": "Monday's",
    "lat": 46.2051899,
    "lng": 5.2283398,
    "location": {
      "_latitude": 46.2051899,
      "_longitude": 5.2283398
    },
    "description": "Point d'intérêt: Monday's",
    "category": "experienceGustative",
    "categoryGroup": "Experience gustative",
    "categoryItem": "restaurant",
    "city": "Ain",
    "departmentCode": "01",
    "imageUrls": [],
    "images": [],
    "websiteUrl": null,
    "website": null,
    "source": "openstreetmap",
    "osmId": 11442934270,
    "isPublic": true,
    "isValidated": true,
    "isFree": null,
    "pmrAccessible": false,
    "kidsFriendly": null,
    "createdAt": {
      "_seconds": 1771774806,
      "_nanoseconds": 0
    },
    "updatedAt": "2026-02-22T16:40:06.501025"
  },
  {
    "id": "osm_11472419683",
    "name": "Wakanda Tchop",
    "lat": 46.203381,
    "lng": 5.2270403,
    "location": {
      "_latitude": 46.203381,
      "_longitude": 5.2270403
    },
    "description": "Point d'intérêt: Wakanda Tchop",
    "category": "experienceGustative",
    "categoryGroup": "Experience gustative",
    "categoryItem": "restaurant",
    "city": "Ain",
    "departmentCode": "01",
    "imageUrls": [],
    "images": [],
    "websiteUrl": null,
    "website": null,
    "source": "openstreetmap",
    "osmId": 11472419683,
    "isPublic": true,
    "isValidated": true,
    "isFree": null,
    "pmrAccessible": false,
    "kidsFriendly": null,
    "createdAt": {
      "_seconds": 1771774806,
      "_nanoseconds": 0
    },
    "updatedAt": "2026-02-22T16:40:06.501039"
  },
  {
    "id": "osm_11549047684",
    "name": "Eden",
    "lat": 46.2025271,
    "lng": 5.2281968,
    "location": {
      "_latitude": 46.2025271,
      "_longitude": 5.2281968
    },
    "description": "Point d'intérêt: Eden",
    "category": "experienceGustative",
    "categoryGroup": "Experience gustative",
    "categoryItem": "restaurant",
    "city": "Ain",
    "departmentCode": "01",
    "imageUrls": [],
    "images": [],
    "websiteUrl": null,
    "website": null,
    "source": "openstreetmap",
    "osmId": 11549047684,
    "isPublic": true,
    "isValidated": true,
    "isFree": null,
    "pmrAccessible": false,
    "kidsFriendly": null,
    "createdAt": {
      "_seconds": 1771774806,
      "_nanoseconds": 0
    },
    "updatedAt": "2026-02-22T16:40:06.501047"
  },
  {
    "id": "osm_11568487656",
    "name": "Le Petit Moulin de Lola",
    "lat": 46.2010958,
    "lng": 5.2404126,
    "location": {
      "_latitude": 46.2010958,
      "_longitude": 5.2404126
    },
    "description": "Point d'intérêt: Le Petit Moulin de Lola",
    "category": "experienceGustative",
    "categoryGroup": "Experience gustative",
    "categoryItem": "bakery",
    "city": "Ain",
    "departmentCode": "01",
    "imageUrls": [],
    "images": [],
    "websiteUrl": null,
    "website": null,
    "source": "openstreetmap",
    "osmId": 11568487656,
    "isPublic": true,
    "isValidated": true,
    "isFree": null,
    "pmrAccessible": false,
    "kidsFriendly": null,
    "createdAt": {
      "_seconds": 1771774806,
      "_nanoseconds": 0
    },
    "updatedAt": "2026-02-22T16:40:06.501054"
  },
  {
    "id": "osm_11872678112",
    "name": "Today Pizza",
    "lat": 46.2016763,
    "lng": 5.2308063,
    "location": {
      "_latitude": 46.2016763,
      "_longitude": 5.2308063
    },
    "description": "Point d'intérêt: Today Pizza",
    "category": "experienceGustative",
    "categoryGroup": "Experience gustative",
    "categoryItem": "restaurant",
    "city": "Ain",
    "departmentCode": "01",
    "imageUrls": [],
    "images": [],
    "websiteUrl": null,
    "website": null,
    "source": "openstreetmap",
    "osmId": 11872678112,
    "isPublic": true,
    "isValidated": true,
    "isFree": null,
    "pmrAccessible": false,
    "kidsFriendly": null,
    "createdAt": {
      "_seconds": 1771774806,
      "_nanoseconds": 0
    },
    "updatedAt": "2026-02-22T16:40:06.501062"
  },
  {
    "id": "osm_11886419370",
    "name": "POI sans nom",
    "lat": 46.2030261,
    "lng": 5.2454409,
    "location": {
      "_latitude": 46.2030261,
      "_longitude": 5.2454409
    },
    "description": "Point d'intérêt: POI sans nom",
    "category": "experienceGustative",
    "categoryGroup": "Experience gustative",
    "categoryItem": "bakery",
    "city": "Ain",
    "departmentCode": "01",
    "imageUrls": [],
    "images": [],
    "websiteUrl": null,
    "website": null,
    "source": "openstreetmap",
    "osmId": 11886419370,
    "isPublic": true,
    "isValidated": true,
    "isFree": null,
    "pmrAccessible": false,
    "kidsFriendly": null,
    "createdAt": {
      "_seconds": 1771774806,
      "_nanoseconds": 0
    },
    "updatedAt": "2026-02-22T16:40:06.501070"
  },
  {
    "id": "osm_11887477118",
    "name": "POI sans nom",
    "lat": 46.2030279,
    "lng": 5.2454532,
    "location": {
      "_latitude": 46.2030279,
      "_longitude": 5.2454532
    },
    "description": "Point d'intérêt: POI sans nom",
    "category": "experienceGustative",
    "categoryGroup": "Experience gustative",
    "categoryItem": "bakery",
    "city": "Ain",
    "departmentCode": "01",
    "imageUrls": [],
    "images": [],
    "websiteUrl": null,
    "website": null,
    "source": "openstreetmap",
    "osmId": 11887477118,
    "isPublic": true,
    "isValidated": true,
    "isFree": null,
    "pmrAccessible": false,
    "kidsFriendly": null,
    "createdAt": {
      "_seconds": 1771774806,
      "_nanoseconds": 0
    },
    "updatedAt": "2026-02-22T16:40:06.501077"
  },
  {
    "id": "osm_11932414427",
    "name": "L'ami d'pain",
    "lat": 46.2075931,
    "lng": 5.2209315,
    "location": {
      "_latitude": 46.2075931,
      "_longitude": 5.2209315
    },
    "description": "Point d'intérêt: L'ami d'pain",
    "category": "experienceGustative",
    "categoryGroup": "Experience gustative",
    "categoryItem": "bakery",
    "city": "Ain",
    "departmentCode": "01",
    "imageUrls": [],
    "images": [],
    "websiteUrl": null,
    "website": null,
    "source": "openstreetmap",
    "osmId": 11932414427,
    "isPublic": true,
    "isValidated": true,
    "isFree": null,
    "pmrAccessible": false,
    "kidsFriendly": null,
    "createdAt": {
      "_seconds": 1771774806,
      "_nanoseconds": 0
    },
    "updatedAt": "2026-02-22T16:40:06.501085"
  },
  {
    "id": "osm_11991394038",
    "name": "La Mamma",
    "lat": 46.219379,
    "lng": 5.2281635,
    "location": {
      "_latitude": 46.219379,
      "_longitude": 5.2281635
    },
    "description": "Point d'intérêt: La Mamma",
    "category": "experienceGustative",
    "categoryGroup": "Experience gustative",
    "categoryItem": "restaurant",
    "city": "Ain",
    "departmentCode": "01",
    "imageUrls": [],
    "images": [],
    "websiteUrl": null,
    "website": null,
    "source": "openstreetmap",
    "osmId": 11991394038,
    "isPublic": true,
    "isValidated": true,
    "isFree": null,
    "pmrAccessible": false,
    "kidsFriendly": null,
    "createdAt": {
      "_seconds": 1771774806,
      "_nanoseconds": 0
    },
    "updatedAt": "2026-02-22T16:40:06.501092"
  },
  {
    "id": "osm_12050160269",
    "name": "La Table de Poupette",
    "lat": 46.188059,
    "lng": 5.2093372,
    "location": {
      "_latitude": 46.188059,
      "_longitude": 5.2093372
    },
    "description": "Point d'intérêt: La Table de Poupette",
    "category": "experienceGustative",
    "categoryGroup": "Experience gustative",
    "categoryItem": "restaurant",
    "city": "Ain",
    "departmentCode": "01",
    "imageUrls": [],
    "images": [],
    "websiteUrl": null,
    "website": null,
    "source": "openstreetmap",
    "osmId": 12050160269,
    "isPublic": true,
    "isValidated": true,
    "isFree": null,
    "pmrAccessible": false,
    "kidsFriendly": null,
    "createdAt": {
      "_seconds": 1771774806,
      "_nanoseconds": 0
    },
    "updatedAt": "2026-02-22T16:40:06.501100"
  },
  {
    "id": "osm_12084540333",
    "name": "Thaï Fresh",
    "lat": 46.2030471,
    "lng": 5.2262102,
    "location": {
      "_latitude": 46.2030471,
      "_longitude": 5.2262102
    },
    "description": "Point d'intérêt: Thaï Fresh",
    "category": "experienceGustative",
    "categoryGroup": "Experience gustative",
    "categoryItem": "restaurant",
    "city": "Ain",
    "departmentCode": "01",
    "imageUrls": [],
    "images": [],
    "websiteUrl": null,
    "website": null,
    "source": "openstreetmap",
    "osmId": 12084540333,
    "isPublic": true,
    "isValidated": true,
    "isFree": null,
    "pmrAccessible": false,
    "kidsFriendly": null,
    "createdAt": {
      "_seconds": 1771774806,
      "_nanoseconds": 0
    },
    "updatedAt": "2026-02-22T16:40:06.501107"
  },
  {
    "id": "osm_12135501959",
    "name": "All Pizza & Pasta Buffet",
    "lat": 46.2000522,
    "lng": 5.2470328,
    "location": {
      "_latitude": 46.2000522,
      "_longitude": 5.2470328
    },
    "description": "Point d'intérêt: All Pizza & Pasta Buffet",
    "category": "experienceGustative",
    "categoryGroup": "Experience gustative",
    "categoryItem": "restaurant",
    "city": "Ain",
    "departmentCode": "01",
    "imageUrls": [],
    "images": [],
    "websiteUrl": "https://allpizzapastabuffet.fr/Bourg-en-Bresse/",
    "website": "https://allpizzapastabuffet.fr/Bourg-en-Bresse/",
    "source": "openstreetmap",
    "osmId": 12135501959,
    "isPublic": true,
    "isValidated": true,
    "isFree": null,
    "pmrAccessible": false,
    "kidsFriendly": null,
    "createdAt": {
      "_seconds": 1771774806,
      "_nanoseconds": 0
    },
    "updatedAt": "2026-02-22T16:40:06.501115"
  },
  {
    "id": "osm_12149548866",
    "name": "POI sans nom",
    "lat": 46.227816,
    "lng": 5.2354588,
    "location": {
      "_latitude": 46.227816,
      "_longitude": 5.2354588
    },
    "description": "Point d'intérêt: POI sans nom",
    "category": "experienceGustative",
    "categoryGroup": "Experience gustative",
    "categoryItem": "cafe",
    "city": "Ain",
    "departmentCode": "01",
    "imageUrls": [],
    "images": [],
    "websiteUrl": null,
    "website": null,
    "source": "openstreetmap",
    "osmId": 12149548866,
    "isPublic": true,
    "isValidated": true,
    "isFree": null,
    "pmrAccessible": false,
    "kidsFriendly": null,
    "createdAt": {
      "_seconds": 1771774806,
      "_nanoseconds": 0
    },
    "updatedAt": "2026-02-22T16:40:06.501122"
  },
  {
    "id": "osm_12171280208",
    "name": "Matt The Baker",
    "lat": 46.2168699,
    "lng": 5.2130095,
    "location": {
      "_latitude": 46.2168699,
      "_longitude": 5.2130095
    },
    "description": "Point d'intérêt: Matt The Baker",
    "category": "experienceGustative",
    "categoryGroup": "Experience gustative",
    "categoryItem": "bakery",
    "city": "Ain",
    "departmentCode": "01",
    "imageUrls": [],
    "images": [],
    "websiteUrl": null,
    "website": null,
    "source": "openstreetmap",
    "osmId": 12171280208,
    "isPublic": true,
    "isValidated": true,
    "isFree": null,
    "pmrAccessible": false,
    "kidsFriendly": null,
    "createdAt": {
      "_seconds": 1771774806,
      "_nanoseconds": 0
    },
    "updatedAt": "2026-02-22T16:40:06.501137"
  },
  {
    "id": "osm_12369230197",
    "name": "La Pizza del Campione",
    "lat": 46.2045212,
    "lng": 5.2268681,
    "location": {
      "_latitude": 46.2045212,
      "_longitude": 5.2268681
    },
    "description": "Point d'intérêt: La Pizza del Campione",
    "category": "experienceGustative",
    "categoryGroup": "Experience gustative",
    "categoryItem": "restaurant",
    "city": "Ain",
    "departmentCode": "01",
    "imageUrls": [],
    "images": [],
    "websiteUrl": null,
    "website": null,
    "source": "openstreetmap",
    "osmId": 12369230197,
    "isPublic": true,
    "isValidated": true,
    "isFree": null,
    "pmrAccessible": false,
    "kidsFriendly": null,
    "createdAt": {
      "_seconds": 1771774806,
      "_nanoseconds": 0
    },
    "updatedAt": "2026-02-22T16:40:06.501145"
  },
  {
    "id": "osm_12525874286",
    "name": "Au Bureau",
    "lat": 46.2091287,
    "lng": 5.2332996,
    "location": {
      "_latitude": 46.2091287,
      "_longitude": 5.2332996
    },